{
"type": "FeatureCollection",
"name": "EquipFiscEletronica",
"crs": { "type": "name", "properties": { "name": "urn:ogc:def:crs:EPSG::4674" } },
"features": [
{ "type": "Feature", "properties": { "fid": 1, "Sitio": "06702001", "Status": "Ativo", "Finalidade": "Fiscalizacao", "Endereco": "Av. Bezerra de Menezes, 306 [L-O]", "ViaSentido": "Av. Bezerra de Menezes [L-O]", "Bairro": "Farias Brito", "Regional": "SR 3", "DataAtivacao": 20221116, "DataDesativacao": null, "Faixas_Via": 4, "Faixas_Fis": 1, "TemContagem": "S", "Lon": -38.547493, "Lat": -3.73205 }, "geometry": { "type": "Point", "coordinates": [ -38.547493, -3.73205 ] } },
{ "type": "Feature", "properties": { "fid": 2, "Sitio": "06702002", "Status": "Ativo", "Finalidade": "Fiscalizacao", "Endereco": "Av. Bezerra de Menezes, 435 [O-L]", "ViaSentido": "Av. Bezerra de Menezes [O-L]", "Bairro": "Parque Araxá", "Regional": "SR 3", "DataAtivacao": 20221206, "DataDesativacao": null, "Faixas_Via": 4, "Faixas_Fis": 1, "TemContagem": "S", "Lon": -38.548628, "Lat": -3.73249 }, "geometry": { "type": "Point", "coordinates": [ -38.548628, -3.73249 ] } },
{ "type": "Feature", "properties": { "fid": 3, "Sitio": "06702003", "Status": "Ativo", "Finalidade": "Fiscalizacao", "Endereco": "Av. Bezerra de Menezes x R. Padre Anchieta [L-O]", "ViaSentido": "Av. Bezerra de Menezes [L-O]", "Bairro": "São Gerardo", "Regional": "SR 3", "DataAtivacao": 20220926, "DataDesativacao": null, "Faixas_Via": 2, "Faixas_Fis": 1, "TemContagem": "S", "Lon": -38.551894, "Lat": -3.73294 }, "geometry": { "type": "Point", "coordinates": [ -38.551894, -3.73294 ] } },
{ "type": "Feature", "properties": { "fid": 4, "Sitio": "06702004", "Status": "Ativo", "Finalidade": "Fiscalizacao", "Endereco": "Av. Bezerra de Menezes x R. Padre Anchieta [O-L]", "ViaSentido": "Av. Bezerra de Menezes [O-L]", "Bairro": "Parquelândia", "Regional": "SR 3", "DataAtivacao": 20220926, "DataDesativacao": null, "Faixas_Via": 2, "Faixas_Fis": 1, "TemContagem": "S", "Lon": -38.552601, "Lat": -3.73327 }, "geometry": { "type": "Point", "coordinates": [ -38.552601, -3.73327 ] } },
{ "type": "Feature", "properties": { "fid": 5, "Sitio": "06702005", "Status": "Ativo", "Finalidade": "Fiscalizacao", "Endereco": "Av. Bezerra de Menezes, 1820 [L-O]", "ViaSentido": "Av. Bezerra de Menezes [L-O]", "Bairro": "São Gerardo", "Regional": "SR 3", "DataAtivacao": 20221110, "DataDesativacao": null, "Faixas_Via": 4, "Faixas_Fis": 1, "TemContagem": "S", "Lon": -38.560822, "Lat": -3.73479 }, "geometry": { "type": "Point", "coordinates": [ -38.560822, -3.73479 ] } },
{ "type": "Feature", "properties": { "fid": 6, "Sitio": "06702006", "Status": "Ativo", "Finalidade": "Fiscalizacao", "Endereco": "Av. Bezerra de Menezes, 2461 - Oposto [L-O]", "ViaSentido": "Av. Bezerra de Menezes [L-O]", "Bairro": "Presidente Kennedy", "Regional": "SR 3", "DataAtivacao": 20221110, "DataDesativacao": null, "Faixas_Via": 1, "Faixas_Fis": 1, "TemContagem": "S", "Lon": -38.566239, "Lat": -3.73592 }, "geometry": { "type": "Point", "coordinates": [ -38.566239, -3.73592 ] } },
{ "type": "Feature", "properties": { "fid": 7, "Sitio": "06702007", "Status": "Ativo", "Finalidade": "Fiscalizacao", "Endereco": "Av. Bezerra de Menezes, 2461 [O-L]", "ViaSentido": "Av. Bezerra de Menezes [O-L]", "Bairro": "Parquelândia", "Regional": "SR 3", "DataAtivacao": 20221122, "DataDesativacao": null, "Faixas_Via": 2, "Faixas_Fis": 3, "TemContagem": "S", "Lon": -38.566383, "Lat": -3.73614 }, "geometry": { "type": "Point", "coordinates": [ -38.566383, -3.73614 ] } },
{ "type": "Feature", "properties": { "fid": 8, "Sitio": "06702008", "Status": "Ativo", "Finalidade": "Fiscalizacao", "Endereco": "Av. Bezerra de Menezes x Av. Jose Jatahy [L-O]", "ViaSentido": "Av. Bezerra de Menezes [L-O]", "Bairro": "Farias Brito", "Regional": "SR 3", "DataAtivacao": 20230215, "DataDesativacao": null, "Faixas_Via": 4, "Faixas_Fis": 2, "TemContagem": "S", "Lon": -38.54484052, "Lat": -3.73146505 }, "geometry": { "type": "Point", "coordinates": [ -38.54484052, -3.73146505 ] } },
{ "type": "Feature", "properties": { "fid": 9, "Sitio": "06702010", "Status": "Ativo", "Finalidade": "Fiscalizacao", "Endereco": "Av. Jose Jatahy x Av. Bezerra de Menezes [S-N]", "ViaSentido": "Av. Jose Jatahy [S-N]", "Bairro": "Farias Brito", "Regional": "SR 3", "DataAtivacao": 20230215, "DataDesativacao": null, "Faixas_Via": 2, "Faixas_Fis": 2, "TemContagem": "S", "Lon": -38.54473919, "Lat": -3.73174133 }, "geometry": { "type": "Point", "coordinates": [ -38.54473919, -3.73174133 ] } },
{ "type": "Feature", "properties": { "fid": 10, "Sitio": "06702011", "Status": "Ativo", "Finalidade": "Fiscalizacao", "Endereco": "Av. Jovita Feitosa x Av. Humberto Monte [L-O]", "ViaSentido": "Av. Jovita Feitosa [L-O]", "Bairro": "Parquelândia", "Regional": "SR 3", "DataAtivacao": 20150528, "DataDesativacao": null, "Faixas_Via": 2, "Faixas_Fis": 2, "TemContagem": "S", "Lon": -38.566393, "Lat": -3.74189 }, "geometry": { "type": "Point", "coordinates": [ -38.566393, -3.74189 ] } },
{ "type": "Feature", "properties": { "fid": 11, "Sitio": "06702012", "Status": "Ativo", "Finalidade": "Fiscalizacao", "Endereco": "Av. Pres. Castelo Branco x Av. Pasteur [L-O]", "ViaSentido": "Av. Pres. Castelo Branco [L-O]", "Bairro": "Pirambu", "Regional": "SR 1", "DataAtivacao": 20130306, "DataDesativacao": null, "Faixas_Via": 4, "Faixas_Fis": 1, "TemContagem": "S", "Lon": -38.558674, "Lat": -3.71118 }, "geometry": { "type": "Point", "coordinates": [ -38.558674, -3.71118 ] } },
{ "type": "Feature", "properties": { "fid": 12, "Sitio": "06702013", "Status": "Ativo", "Finalidade": "Fiscalizacao", "Endereco": "Av. Pres. Castelo Branco x Av. Pasteur [O-L]", "ViaSentido": "Av. Pres. Castelo Branco [O-L]", "Bairro": "Álvaro Weyne", "Regional": "SR 1", "DataAtivacao": 20230116, "DataDesativacao": null, "Faixas_Via": null, "Faixas_Fis": 1, "TemContagem": "S", "Lon": -38.558951, "Lat": -3.7112 }, "geometry": { "type": "Point", "coordinates": [ -38.558951, -3.7112 ] } },
{ "type": "Feature", "properties": { "fid": 13, "Sitio": "06702015", "Status": "Ativo", "Finalidade": "Fiscalizacao", "Endereco": "Av. Pres. Castelo Branco x R. Alves de Lima [L-O]", "ViaSentido": "Av. Pres. Castelo Branco [L-O]", "Bairro": "Cristo Redentor", "Regional": "SR 1", "DataAtivacao": 20240305, "DataDesativacao": null, "Faixas_Via": 2, "Faixas_Fis": 1, "TemContagem": "S", "Lon": -38.568513, "Lat": -3.7083 }, "geometry": { "type": "Point", "coordinates": [ -38.568513, -3.7083 ] } },
{ "type": "Feature", "properties": { "fid": 14, "Sitio": "06702016", "Status": "Ativo", "Finalidade": "Fiscalizacao", "Endereco": "Av. Pres. Castelo Branco x R. Alves de Lima [O-L]", "ViaSentido": "Av. Pres. Castelo Branco [O-L]", "Bairro": "Cristo Redentor", "Regional": "SR 1", "DataAtivacao": 20180404, "DataDesativacao": null, "Faixas_Via": 2, "Faixas_Fis": 1, "TemContagem": "S", "Lon": -38.568719, "Lat": -3.70839 }, "geometry": { "type": "Point", "coordinates": [ -38.568719, -3.70839 ] } },
{ "type": "Feature", "properties": { "fid": 15, "Sitio": "06702017", "Status": "Ativo", "Finalidade": "Fiscalizacao", "Endereco": "Av. Pres. Castelo Branco, 4714 [L-O]", "ViaSentido": "Av. Pres. Castelo Branco [L-O]", "Bairro": "Barra do Ceará", "Regional": "SR 1", "DataAtivacao": 20230109, "DataDesativacao": null, "Faixas_Via": 2, "Faixas_Fis": 0, "TemContagem": "S", "Lon": -38.574294, "Lat": -3.70607 }, "geometry": { "type": "Point", "coordinates": [ -38.574294, -3.70607 ] } },
{ "type": "Feature", "properties": { "fid": 16, "Sitio": "06702018", "Status": "Ativo", "Finalidade": "Fiscalizacao", "Endereco": "Av. Pres. Castelo Branco, 4763 [O-L]", "ViaSentido": "Av. Pres. Castelo Branco [O-L]", "Bairro": "Barra do Ceará", "Regional": "SR 1", "DataAtivacao": 20221017, "DataDesativacao": null, "Faixas_Via": null, "Faixas_Fis": 2, "TemContagem": "S", "Lon": -38.574354, "Lat": -3.70622 }, "geometry": { "type": "Point", "coordinates": [ -38.574354, -3.70622 ] } },
{ "type": "Feature", "properties": { "fid": 17, "Sitio": "06702025", "Status": "Ativo", "Finalidade": "Fiscalizacao", "Endereco": "Av. Jose Bastos x Av. Humberto Monte [N-S]", "ViaSentido": "Av. Jose Bastos [N-S]", "Bairro": "Rodolfo Teófilo", "Regional": "SR 3", "DataAtivacao": 20221206, "DataDesativacao": null, "Faixas_Via": 4, "Faixas_Fis": 4, "TemContagem": "S", "Lon": -38.555327, "Lat": -3.75478 }, "geometry": { "type": "Point", "coordinates": [ -38.555327, -3.75478 ] } },
{ "type": "Feature", "properties": { "fid": 18, "Sitio": "06702026", "Status": "Ativo", "Finalidade": "Fiscalizacao", "Endereco": "Av. Jose Bastos x Av. Humberto Monte [S-N]", "ViaSentido": "Av. Jose Bastos [S-N]", "Bairro": "Rodolfo Teófilo", "Regional": "SR 3", "DataAtivacao": 20221206, "DataDesativacao": null, "Faixas_Via": 4, "Faixas_Fis": 4, "TemContagem": "S", "Lon": -38.555546, "Lat": -3.75515 }, "geometry": { "type": "Point", "coordinates": [ -38.555546, -3.75515 ] } },
{ "type": "Feature", "properties": { "fid": 19, "Sitio": "06702027", "Status": "Ativo", "Finalidade": "Fiscalizacao", "Endereco": "Av. Jose Bastos x R. Ceara [S-N]", "ViaSentido": "Av. Jose Bastos [S-N]", "Bairro": "Demócrito Rocha", "Regional": "SR 11", "DataAtivacao": 20231122, "DataDesativacao": null, "Faixas_Via": 3, "Faixas_Fis": 3, "TemContagem": "S", "Lon": -38.564167, "Lat": -3.76022 }, "geometry": { "type": "Point", "coordinates": [ -38.564167, -3.76022 ] } },
{ "type": "Feature", "properties": { "fid": 20, "Sitio": "06702028", "Status": "Ativo", "Finalidade": "Fiscalizacao", "Endereco": "Av. Godofredo Maciel x R. Nereu Ramos [S-N]", "ViaSentido": "Av. Godofredo Maciel [S-N]", "Bairro": "Itaperi", "Regional": "SR 8", "DataAtivacao": 20221108, "DataDesativacao": null, "Faixas_Via": 2, "Faixas_Fis": 2, "TemContagem": "S", "Lon": -38.566742, "Lat": -3.78746 }, "geometry": { "type": "Point", "coordinates": [ -38.566742, -3.78746 ] } },
{ "type": "Feature", "properties": { "fid": 21, "Sitio": "06702029", "Status": "Ativo", "Finalidade": "Fiscalizacao", "Endereco": "Av. Godofredo Maciel, 2900 [N-S]", "ViaSentido": "Av. Godofredo Maciel [N-S]", "Bairro": "Maraponga", "Regional": "SR 10", "DataAtivacao": 20131120, "DataDesativacao": null, "Faixas_Via": 3, "Faixas_Fis": 3, "TemContagem": "S", "Lon": -38.571247, "Lat": -3.80064 }, "geometry": { "type": "Point", "coordinates": [ -38.571247, -3.80064 ] } },
{ "type": "Feature", "properties": { "fid": 22, "Sitio": "06702030", "Status": "Ativo", "Finalidade": "Fiscalizacao", "Endereco": "Av. Godofredo Maciel, 2915 [S-N]", "ViaSentido": "Av. Godofredo Maciel [S-N]", "Bairro": "Jardim Cearense", "Regional": "SR 10", "DataAtivacao": 20170417, "DataDesativacao": null, "Faixas_Via": 3, "Faixas_Fis": 3, "TemContagem": "S", "Lon": -38.571303, "Lat": -3.80123 }, "geometry": { "type": "Point", "coordinates": [ -38.571303, -3.80123 ] } },
{ "type": "Feature", "properties": { "fid": 23, "Sitio": "06702031", "Status": "Ativo", "Finalidade": "Fiscalizacao", "Endereco": "Av.  Aguanambi, 1035 [S-N]", "ViaSentido": "Av. Aguanambi [S-N]", "Bairro": "Fátima", "Regional": "SR 4", "DataAtivacao": 20190318, "DataDesativacao": null, "Faixas_Via": 4, "Faixas_Fis": 4, "TemContagem": "S", "Lon": -38.525177, "Lat": -3.74611 }, "geometry": { "type": "Point", "coordinates": [ -38.525177, -3.74611 ] } },
{ "type": "Feature", "properties": { "fid": 24, "Sitio": "06702032", "Status": "Ativo", "Finalidade": "Fiscalizacao", "Endereco": "Av.  Aguanambi, 1035 - Oposto [N-S]", "ViaSentido": "Av. Aguanambi [N-S]", "Bairro": "Fátima", "Regional": "SR 4", "DataAtivacao": 20190318, "DataDesativacao": null, "Faixas_Via": 3, "Faixas_Fis": 3, "TemContagem": "S", "Lon": -38.525338, "Lat": -3.74617 }, "geometry": { "type": "Point", "coordinates": [ -38.525338, -3.74617 ] } },
{ "type": "Feature", "properties": { "fid": 25, "Sitio": "06702033", "Status": "Ativo", "Finalidade": "Fiscalizacao", "Endereco": "Av. Augusto dos Anjos x R. Julio Braga [N-S]", "ViaSentido": "Av. Augusto dos Anjos [N-S]", "Bairro": "Jóquei Clube", "Regional": "SR 11", "DataAtivacao": 20141113, "DataDesativacao": null, "Faixas_Via": 2, "Faixas_Fis": 2, "TemContagem": "S", "Lon": -38.576158, "Lat": -3.77669 }, "geometry": { "type": "Point", "coordinates": [ -38.576158, -3.77669 ] } },
{ "type": "Feature", "properties": { "fid": 26, "Sitio": "06702034", "Status": "Ativo", "Finalidade": "Fiscalizacao", "Endereco": "Av. Augusto dos Anjos x R. Julio Braga [S-N]", "ViaSentido": "Av. Augusto dos Anjos [S-N]", "Bairro": "Parangaba", "Regional": "SR 4", "DataAtivacao": 20141113, "DataDesativacao": null, "Faixas_Via": 3, "Faixas_Fis": 3, "TemContagem": "S", "Lon": -38.57624, "Lat": -3.77686 }, "geometry": { "type": "Point", "coordinates": [ -38.57624, -3.77686 ] } },
{ "type": "Feature", "properties": { "fid": 27, "Sitio": "06702035", "Status": "Ativo", "Finalidade": "Fiscalizacao", "Endereco": "Av. Bernardo Manuel, 8798 [N-S]", "ViaSentido": "Av. Bernardo Manuel [N-S]", "Bairro": "Dendê", "Regional": "SR 8", "DataAtivacao": 20221116, "DataDesativacao": null, "Faixas_Via": 2, "Faixas_Fis": 1, "TemContagem": "S", "Lon": -38.550821, "Lat": -3.79645 }, "geometry": { "type": "Point", "coordinates": [ -38.550821, -3.79645 ] } },
{ "type": "Feature", "properties": { "fid": 28, "Sitio": "06702036", "Status": "Ativo", "Finalidade": "Fiscalizacao", "Endereco": "Av. Bernardo Manuel, 8851 [S-N]", "ViaSentido": "Av. Bernardo Manuel [S-N]", "Bairro": "Parque Dois Irmãos", "Regional": "SR 8", "DataAtivacao": 20221116, "DataDesativacao": null, "Faixas_Via": 2, "Faixas_Fis": 1, "TemContagem": "S", "Lon": -38.550885, "Lat": -3.79704 }, "geometry": { "type": "Point", "coordinates": [ -38.550885, -3.79704 ] } },
{ "type": "Feature", "properties": { "fid": 29, "Sitio": "06702037", "Status": "Ativo", "Finalidade": "Fiscalizacao", "Endereco": "Av. Abolicao x R. Frei Mansueto [L-O]", "ViaSentido": "Av. Abolicao [L-O]", "Bairro": "Mucuripe", "Regional": "SR 2", "DataAtivacao": 20130218, "DataDesativacao": null, "Faixas_Via": 2, "Faixas_Fis": 2, "TemContagem": "S", "Lon": -38.489221, "Lat": -3.72631 }, "geometry": { "type": "Point", "coordinates": [ -38.489221, -3.72631 ] } },
{ "type": "Feature", "properties": { "fid": 30, "Sitio": "06702038", "Status": "Ativo", "Finalidade": "Fiscalizacao", "Endereco": "Av. Dep. Paulino Rocha, 46 [N-S]", "ViaSentido": "Av. Dep. Paulino Rocha [N-S]", "Bairro": "Cajazeiras", "Regional": "SR 9", "DataAtivacao": 20150825, "DataDesativacao": null, "Faixas_Via": 2, "Faixas_Fis": 3, "TemContagem": "S", "Lon": -38.507666, "Lat": -3.80195 }, "geometry": { "type": "Point", "coordinates": [ -38.507666, -3.80195 ] } },
{ "type": "Feature", "properties": { "fid": 31, "Sitio": "06702039", "Status": "Ativo", "Finalidade": "Fiscalizacao", "Endereco": "Av. Dep. Paulino Rocha, 46 - Oposto [S-N]", "ViaSentido": "Av. Dep. Paulino Rocha [S-N]", "Bairro": "Cajazeiras", "Regional": "SR 9", "DataAtivacao": 20150825, "DataDesativacao": null, "Faixas_Via": 2, "Faixas_Fis": 2, "TemContagem": "S", "Lon": -38.507536, "Lat": -3.80198 }, "geometry": { "type": "Point", "coordinates": [ -38.507536, -3.80198 ] } },
{ "type": "Feature", "properties": { "fid": 32, "Sitio": "06702040", "Status": "Ativo", "Finalidade": "Fiscalizacao", "Endereco": "Av. Pontes Vieira x R. Capitao Gustavo [L-O]", "ViaSentido": "Av. Pontes Vieira [L-O]", "Bairro": "Joaquim Távora", "Regional": "SR 2", "DataAtivacao": 20131014, "DataDesativacao": null, "Faixas_Via": 1, "Faixas_Fis": 1, "TemContagem": "S", "Lon": -38.517025, "Lat": -3.7531 }, "geometry": { "type": "Point", "coordinates": [ -38.517025, -3.7531 ] } },
{ "type": "Feature", "properties": { "fid": 33, "Sitio": "06702044", "Status": "Ativo", "Finalidade": "Fiscalizacao", "Endereco": "Av. Hist. Raimundo Girao x Av. Rui Barbosa [L-O]", "ViaSentido": "Av. Hist. Raimundo Girao [L-O]", "Bairro": "Meireles", "Regional": "SR 2", "DataAtivacao": 20220927, "DataDesativacao": null, "Faixas_Via": 3, "Faixas_Fis": 3, "TemContagem": "S", "Lon": -38.505251, "Lat": -3.72363 }, "geometry": { "type": "Point", "coordinates": [ -38.505251, -3.72363 ] } },
{ "type": "Feature", "properties": { "fid": 34, "Sitio": "06702045", "Status": "Ativo", "Finalidade": "Fiscalizacao", "Endereco": "Av. Francisco Sa, 3572 [L-O]", "ViaSentido": "Av. Francisco Sa [L-O]", "Bairro": "Carlito Pamplona", "Regional": "SR 1", "DataAtivacao": 20221010, "DataDesativacao": null, "Faixas_Via": 3, "Faixas_Fis": 2, "TemContagem": "S", "Lon": -38.556651, "Lat": -3.71761 }, "geometry": { "type": "Point", "coordinates": [ -38.556651, -3.71761 ] } },
{ "type": "Feature", "properties": { "fid": 35, "Sitio": "06702046", "Status": "Ativo", "Finalidade": "Fiscalizacao", "Endereco": "Av. Francisco Sa, 3572 - Oposto [O-L]", "ViaSentido": "Av. Francisco Sa [O-L]", "Bairro": "Carlito Pamplona", "Regional": "SR 1", "DataAtivacao": 20221010, "DataDesativacao": null, "Faixas_Via": 3, "Faixas_Fis": 3, "TemContagem": "S", "Lon": -38.556845, "Lat": -3.71761 }, "geometry": { "type": "Point", "coordinates": [ -38.556845, -3.71761 ] } },
{ "type": "Feature", "properties": { "fid": 36, "Sitio": "06702047", "Status": "Ativo", "Finalidade": "Fiscalizacao", "Endereco": "Av. Francisco Sa x R. Francisco Calaca [L-O]", "ViaSentido": "Av. Francisco Sa [L-O]", "Bairro": "Cristo Redentor", "Regional": "SR 1", "DataAtivacao": 20221017, "DataDesativacao": null, "Faixas_Via": 2, "Faixas_Fis": 1, "TemContagem": "S", "Lon": -38.572103, "Lat": -3.71236 }, "geometry": { "type": "Point", "coordinates": [ -38.572103, -3.71236 ] } },
{ "type": "Feature", "properties": { "fid": 37, "Sitio": "06702048", "Status": "Ativo", "Finalidade": "Fiscalizacao", "Endereco": "Av. Francisco Sa x R. Francisco Calaca [O-L]", "ViaSentido": "Av. Francisco Sa [O-L]", "Bairro": "Floresta", "Regional": "SR 1", "DataAtivacao": 20221017, "DataDesativacao": null, "Faixas_Via": 2, "Faixas_Fis": 1, "TemContagem": "S", "Lon": -38.572443, "Lat": -3.71229 }, "geometry": { "type": "Point", "coordinates": [ -38.572443, -3.71229 ] } },
{ "type": "Feature", "properties": { "fid": 38, "Sitio": "06702049", "Status": "Ativo", "Finalidade": "Fiscalizacao", "Endereco": "Av. Universidade x Av. 13 de Maio [S-N]", "ViaSentido": "Av. Universidade [S-N]", "Bairro": "Benfica", "Regional": "SR 4", "DataAtivacao": 20230130, "DataDesativacao": null, "Faixas_Via": 3, "Faixas_Fis": 4, "TemContagem": "S", "Lon": -38.539239, "Lat": -3.74112 }, "geometry": { "type": "Point", "coordinates": [ -38.539239, -3.74112 ] } },
{ "type": "Feature", "properties": { "fid": 39, "Sitio": "06702050", "Status": "Ativo", "Finalidade": "Fiscalizacao", "Endereco": "Av. Santos Dumont x Av. Des. Moreira [O-L]", "ViaSentido": "Av. Santos Dumont [O-L]", "Bairro": "Aldeota", "Regional": "SR 2", "DataAtivacao": 20221010, "DataDesativacao": null, "Faixas_Via": 2, "Faixas_Fis": 2, "TemContagem": "S", "Lon": -38.498529, "Lat": -3.73619 }, "geometry": { "type": "Point", "coordinates": [ -38.498529, -3.73619 ] } },
{ "type": "Feature", "properties": { "fid": 40, "Sitio": "06702051", "Status": "Ativo", "Finalidade": "Fiscalizacao", "Endereco": "Av. Augusto dos Anjos x R. Primeiro de Maio [N-S]", "ViaSentido": "Av. Augusto dos Anjos [N-S]", "Bairro": "Bonsucesso", "Regional": "SR 5", "DataAtivacao": 20221018, "DataDesativacao": null, "Faixas_Via": 3, "Faixas_Fis": 2, "TemContagem": "S", "Lon": -38.582774, "Lat": -3.78428 }, "geometry": { "type": "Point", "coordinates": [ -38.582774, -3.78428 ] } },
{ "type": "Feature", "properties": { "fid": 41, "Sitio": "06702052", "Status": "Ativo", "Finalidade": "Fiscalizacao", "Endereco": "Av. Augusto dos Anjos x R. Primeiro de Maio [S-N]", "ViaSentido": "Av. Augusto dos Anjos [S-N]", "Bairro": "Vila Peri", "Regional": "SR 4", "DataAtivacao": 20221018, "DataDesativacao": null, "Faixas_Via": 3, "Faixas_Fis": 0, "TemContagem": "S", "Lon": -38.583063, "Lat": -3.7847 }, "geometry": { "type": "Point", "coordinates": [ -38.583063, -3.7847 ] } },
{ "type": "Feature", "properties": { "fid": 42, "Sitio": "06702053", "Status": "Ativo", "Finalidade": "Fiscalizacao", "Endereco": "R. Guilherme Rocha x R.  Padre Mororo [L-O]", "ViaSentido": "Rua Guilherme Rocha [L-O]", "Bairro": "Centro", "Regional": "SR 12", "DataAtivacao": 20141126, "DataDesativacao": null, "Faixas_Via": 3, "Faixas_Fis": 1, "TemContagem": "S", "Lon": -38.536983, "Lat": -3.72406 }, "geometry": { "type": "Point", "coordinates": [ -38.536983, -3.72406 ] } },
{ "type": "Feature", "properties": { "fid": 43, "Sitio": "06702056", "Status": "Ativo", "Finalidade": "Fiscalizacao", "Endereco": "Av. Joao Pessoa x R. Des. Praxedes [S-N]", "ViaSentido": "Av. Joao Pessoa [S-N]", "Bairro": "Montese", "Regional": "SR 4", "DataAtivacao": 20221003, "DataDesativacao": null, "Faixas_Via": 3, "Faixas_Fis": 3, "TemContagem": "S", "Lon": -38.553585, "Lat": -3.75706 }, "geometry": { "type": "Point", "coordinates": [ -38.553585, -3.75706 ] } },
{ "type": "Feature", "properties": { "fid": 44, "Sitio": "06702057", "Status": "Ativo", "Finalidade": "Fiscalizacao", "Endereco": "R. Alberto Magno,623 [N-S]", "ViaSentido": "Rua Alberto Magno [N-S]", "Bairro": "Bom Futuro", "Regional": "SR 4", "DataAtivacao": 20230201, "DataDesativacao": null, "Faixas_Via": 3, "Faixas_Fis": 3, "TemContagem": "S", "Lon": -38.546694, "Lat": -3.76114 }, "geometry": { "type": "Point", "coordinates": [ -38.546694, -3.76114 ] } },
{ "type": "Feature", "properties": { "fid": 45, "Sitio": "06702058", "Status": "Ativo", "Finalidade": "Fiscalizacao", "Endereco": "Av. Alberto Craveiro x R. Pedro Dantas [N-S]", "ViaSentido": "Av. Alberto Craveiro [N-S]", "Bairro": "Dias Macêdo", "Regional": "SR 8", "DataAtivacao": 20230216, "DataDesativacao": null, "Faixas_Via": 4, "Faixas_Fis": 4, "TemContagem": "S", "Lon": -38.51727911, "Lat": -3.78658233 }, "geometry": { "type": "Point", "coordinates": [ -38.51727911, -3.78658233 ] } },
{ "type": "Feature", "properties": { "fid": 46, "Sitio": "06702059", "Status": "Ativo", "Finalidade": "Fiscalizacao", "Endereco": "Av. Alberto Craveiro x R. Pedro Dantas [S-N]", "ViaSentido": "Av. Alberto Craveiro [S-N]", "Bairro": "Dias Macêdo", "Regional": "SR 8", "DataAtivacao": 20230216, "DataDesativacao": null, "Faixas_Via": 4, "Faixas_Fis": 4, "TemContagem": "S", "Lon": -38.51711247, "Lat": -3.78684428 }, "geometry": { "type": "Point", "coordinates": [ -38.51711247, -3.78684428 ] } },
{ "type": "Feature", "properties": { "fid": 47, "Sitio": "06702062", "Status": "Ativo", "Finalidade": "Fiscalizacao", "Endereco": "Av. Pres. Costa e Silva x Av. Pres. Juscelino Kubitschek [L-O]", "ViaSentido": "Av. Pres. Costa e Silva [L-O]", "Bairro": "Passaré", "Regional": "SR 8", "DataAtivacao": 20130731, "DataDesativacao": null, "Faixas_Via": 2, "Faixas_Fis": 2, "TemContagem": "S", "Lon": -38.539297, "Lat": -3.82563 }, "geometry": { "type": "Point", "coordinates": [ -38.539297, -3.82563 ] } },
{ "type": "Feature", "properties": { "fid": 48, "Sitio": "06702063", "Status": "Ativo", "Finalidade": "Fiscalizacao", "Endereco": "Av. Pres. Costa e Silva x Av. Pres. Juscelino Kubitschek [O-L]", "ViaSentido": "Av. Pres. Costa e Silva [O-L]", "Bairro": "Prefeito José Walter", "Regional": "SR 8", "DataAtivacao": 20130731, "DataDesativacao": null, "Faixas_Via": 3, "Faixas_Fis": 3, "TemContagem": "S", "Lon": -38.539704, "Lat": -3.82568 }, "geometry": { "type": "Point", "coordinates": [ -38.539704, -3.82568 ] } },
{ "type": "Feature", "properties": { "fid": 49, "Sitio": "06702064", "Status": "Ativo", "Finalidade": "Fiscalizacao", "Endereco": "Av. Pres. Castelo Branco, entre R. Peri e R. Ceci [L-O]", "ViaSentido": "Av. Pres. Castelo Branco [L-O]", "Bairro": "Barra do Ceará", "Regional": "SR 1", "DataAtivacao": 20180409, "DataDesativacao": null, "Faixas_Via": 2, "Faixas_Fis": 1, "TemContagem": "S", "Lon": -38.585894, "Lat": -3.70078 }, "geometry": { "type": "Point", "coordinates": [ -38.585894, -3.70078 ] } },
{ "type": "Feature", "properties": { "fid": 50, "Sitio": "06702065", "Status": "Ativo", "Finalidade": "Fiscalizacao", "Endereco": "Av. Pres. Castelo Branco, entre R. Peri e R. Ceci [O-L]", "ViaSentido": "Av. Pres. Castelo Branco [O-L]", "Bairro": "Barra do Ceará", "Regional": "SR 1", "DataAtivacao": 20180409, "DataDesativacao": null, "Faixas_Via": 1, "Faixas_Fis": 1, "TemContagem": "S", "Lon": -38.585958, "Lat": -3.70088 }, "geometry": { "type": "Point", "coordinates": [ -38.585958, -3.70088 ] } },
{ "type": "Feature", "properties": { "fid": 51, "Sitio": "06702066", "Status": "Ativo", "Finalidade": "Fiscalizacao", "Endereco": "Av.  Aguanambi, 1035 - Oposto [N-S]", "ViaSentido": "Av. Aguanambi [N-S]", "Bairro": "Fátima", "Regional": "SR 4", "DataAtivacao": 20190318, "DataDesativacao": null, "Faixas_Via": 4, "Faixas_Fis": 4, "TemContagem": "S", "Lon": -38.525338, "Lat": -3.74617 }, "geometry": { "type": "Point", "coordinates": [ -38.525338, -3.74617 ] } },
{ "type": "Feature", "properties": { "fid": 52, "Sitio": "06702067", "Status": "Ativo", "Finalidade": "Fiscalizacao", "Endereco": "Av.  Aguanambi, 1035 [S-N]", "ViaSentido": "Av. Aguanambi [S-N]", "Bairro": "Fátima", "Regional": "SR 4", "DataAtivacao": 20190318, "DataDesativacao": null, "Faixas_Via": 3, "Faixas_Fis": 3, "TemContagem": "S", "Lon": -38.525177, "Lat": -3.74611 }, "geometry": { "type": "Point", "coordinates": [ -38.525177, -3.74611 ] } },
{ "type": "Feature", "properties": { "fid": 53, "Sitio": "06702068", "Status": "Ativo", "Finalidade": "Fiscalizacao", "Endereco": "Av. Dr. Silas Munguba, 1700 - Oposto [L-O]", "ViaSentido": "Av. Silas Munguba [L-O]", "Bairro": "Serrinha", "Regional": "SR 8", "DataAtivacao": 20230502, "DataDesativacao": null, "Faixas_Via": 2, "Faixas_Fis": 3, "TemContagem": "S", "Lon": -38.551204, "Lat": -3.7858 }, "geometry": { "type": "Point", "coordinates": [ -38.551204, -3.7858 ] } },
{ "type": "Feature", "properties": { "fid": 54, "Sitio": "06702069", "Status": "Ativo", "Finalidade": "Fiscalizacao", "Endereco": "Av. Dr. Silas Munguba, 1700 [O-L]", "ViaSentido": "Av. Silas Munguba [O-L]", "Bairro": "Itaperi", "Regional": "SR 8", "DataAtivacao": 20140210, "DataDesativacao": null, "Faixas_Via": 3, "Faixas_Fis": 3, "TemContagem": "S", "Lon": -38.55143, "Lat": -3.78586 }, "geometry": { "type": "Point", "coordinates": [ -38.55143, -3.78586 ] } },
{ "type": "Feature", "properties": { "fid": 55, "Sitio": "06702070", "Status": "Ativo", "Finalidade": "Fiscalizacao", "Endereco": "R. Alberto Magno x R.  Des. Praxedes [N-S]", "ViaSentido": "Rua Alberto Magno [N-S]", "Bairro": "Bom Futuro", "Regional": "SR 4", "DataAtivacao": 20221123, "DataDesativacao": null, "Faixas_Via": 2, "Faixas_Fis": 2, "TemContagem": "S", "Lon": -38.546743, "Lat": -3.76114 }, "geometry": { "type": "Point", "coordinates": [ -38.546743, -3.76114 ] } },
{ "type": "Feature", "properties": { "fid": 56, "Sitio": "06702074", "Status": "Ativo", "Finalidade": "Fiscalizacao", "Endereco": "Av. Gal. Osorio de Paiva, 1979 [S-N]", "ViaSentido": "Av. Gal. Osorio de Paiva [S-N]", "Bairro": "Vila Peri", "Regional": "SR 4", "DataAtivacao": 20230522, "DataDesativacao": null, "Faixas_Via": 3, "Faixas_Fis": 3, "TemContagem": "S", "Lon": -38.57984173, "Lat": -3.78412499 }, "geometry": { "type": "Point", "coordinates": [ -38.57984173, -3.78412499 ] } },
{ "type": "Feature", "properties": { "fid": 57, "Sitio": "06702075", "Status": "Ativo", "Finalidade": "Fiscalizacao", "Endereco": "Av.  Alberto Craveiro, 1480 - Oposto [S-N]", "ViaSentido": "Av. Alberto Craveiro [S-N]", "Bairro": "Boa Vista/Castelão", "Regional": "SR 8", "DataAtivacao": 20230509, "DataDesativacao": null, "Faixas_Via": 2, "Faixas_Fis": 2, "TemContagem": "S", "Lon": -38.517673, "Lat": -3.79357 }, "geometry": { "type": "Point", "coordinates": [ -38.517673, -3.79357 ] } },
{ "type": "Feature", "properties": { "fid": 58, "Sitio": "06702076", "Status": "Ativo", "Finalidade": "Fiscalizacao", "Endereco": "Av.  Alberto Craveiro, 1480 [N-S]", "ViaSentido": "Av. Alberto Craveiro [N-S]", "Bairro": "Boa Vista/Castelão", "Regional": "SR 8", "DataAtivacao": 20230509, "DataDesativacao": null, "Faixas_Via": 2, "Faixas_Fis": 2, "TemContagem": "S", "Lon": -38.517806, "Lat": -3.79315 }, "geometry": { "type": "Point", "coordinates": [ -38.517806, -3.79315 ] } },
{ "type": "Feature", "properties": { "fid": 59, "Sitio": "06702077", "Status": "Ativo", "Finalidade": "Fiscalizacao", "Endereco": "Av. Pres. Costa e Silva, 1251 [S-N]", "ViaSentido": "Av. Pres. Costa e Silva [L-O]", "Bairro": "Mondubim", "Regional": "SR 10", "DataAtivacao": 20230612, "DataDesativacao": null, "Faixas_Via": 3, "Faixas_Fis": 3, "TemContagem": "S", "Lon": -38.56903487, "Lat": -3.81510118 }, "geometry": { "type": "Point", "coordinates": [ -38.56903487, -3.81510118 ] } },
{ "type": "Feature", "properties": { "fid": 60, "Sitio": "06702078", "Status": "Ativo", "Finalidade": "Fiscalizacao", "Endereco": "Av. Pres. Costa e Silva, 1251 - Oposto [N-S]", "ViaSentido": "Av. Pres. Costa e Silva [O-L]", "Bairro": "Mondubim", "Regional": "SR 10", "DataAtivacao": 20230612, "DataDesativacao": null, "Faixas_Via": 3, "Faixas_Fis": 3, "TemContagem": "S", "Lon": -38.56914612, "Lat": -3.8151916 }, "geometry": { "type": "Point", "coordinates": [ -38.56914612, -3.8151916 ] } },
{ "type": "Feature", "properties": { "fid": 61, "Sitio": "06702079", "Status": "Ativo", "Finalidade": "Fiscalizacao", "Endereco": "Av. Santos Dumont X R. Batista de Oliveira [O-L]", "ViaSentido": "Av. Santos Dumont [O-L]", "Bairro": "Papicu", "Regional": "SR 2", "DataAtivacao": 20230706, "DataDesativacao": null, "Faixas_Via": 3, "Faixas_Fis": 3, "TemContagem": "S", "Lon": -38.47974235, "Lat": -3.74225578 }, "geometry": { "type": "Point", "coordinates": [ -38.47974235, -3.74225578 ] } },
{ "type": "Feature", "properties": { "fid": 62, "Sitio": "06702081", "Status": "Ativo", "Finalidade": "Fiscalizacao", "Endereco": "Av. Joao Pessoa, 6754 [N-S]", "ViaSentido": "Av. Joao Pessoa [N-S]", "Bairro": "Parangaba", "Regional": "SR 4", "DataAtivacao": 20230607, "DataDesativacao": null, "Faixas_Via": 2, "Faixas_Fis": 2, "TemContagem": "S", "Lon": -38.56089228, "Lat": -3.7697751 }, "geometry": { "type": "Point", "coordinates": [ -38.56089228, -3.7697751 ] } },
{ "type": "Feature", "properties": { "fid": 63, "Sitio": "06702082", "Status": "Ativo", "Finalidade": "Fiscalizacao", "Endereco": "Av. Joao Pessoa, 6754 - Oposto [S-N]", "ViaSentido": "Av. Joao Pessoa [S-N]", "Bairro": "Parangaba", "Regional": "SR 4", "DataAtivacao": 20230607, "DataDesativacao": null, "Faixas_Via": 2, "Faixas_Fis": 2, "TemContagem": "S", "Lon": -38.5608425, "Lat": -3.7697978 }, "geometry": { "type": "Point", "coordinates": [ -38.5608425, -3.7697978 ] } },
{ "type": "Feature", "properties": { "fid": 64, "Sitio": "06702083", "Status": "Ativo", "Finalidade": "Fiscalizacao", "Endereco": "Av. 13 de Maio x Av. da Universidade [L-O]", "ViaSentido": "Av. 13 de Maio [L-O]", "Bairro": "Benfica", "Regional": "SR 4", "DataAtivacao": 20230926, "DataDesativacao": null, "Faixas_Via": 2, "Faixas_Fis": 2, "TemContagem": "S", "Lon": -38.5389, "Lat": -3.7410353 }, "geometry": { "type": "Point", "coordinates": [ -38.5389, -3.7410353 ] } },
{ "type": "Feature", "properties": { "fid": 65, "Sitio": "06702084", "Status": "Ativo", "Finalidade": "Fiscalizacao", "Endereco": "Av. Alberto Craveiro, 2571 [S-N]", "ViaSentido": "Av. Alberto Craveiro [S-N]", "Bairro": "Boa Vista/Castelão", "Regional": "SR 8", "DataAtivacao": 20230629, "DataDesativacao": null, "Faixas_Via": 4, "Faixas_Fis": 4, "TemContagem": "S", "Lon": -38.52094263, "Lat": -3.80264826 }, "geometry": { "type": "Point", "coordinates": [ -38.52094263, -3.80264826 ] } },
{ "type": "Feature", "properties": { "fid": 66, "Sitio": "06702085", "Status": "Ativo", "Finalidade": "Fiscalizacao", "Endereco": "Av. Alberto Craveiro, 2636 [N-S]", "ViaSentido": "Av. Alberto Craveiro [N-S]", "Bairro": "Boa Vista/Castelão", "Regional": "SR 8", "DataAtivacao": 20230629, "DataDesativacao": null, "Faixas_Via": 4, "Faixas_Fis": 4, "TemContagem": "S", "Lon": -38.52108856, "Lat": -3.80253346 }, "geometry": { "type": "Point", "coordinates": [ -38.52108856, -3.80253346 ] } },
{ "type": "Feature", "properties": { "fid": 67, "Sitio": "06702086", "Status": "Ativo", "Finalidade": "Fiscalizacao", "Endereco": "Av. Pres. Costa e Silva x Av. I [L-O]", "ViaSentido": "Av. Pres. Costa e Silva [L-O]", "Bairro": "Prefeito José Walter", "Regional": "SR 8", "DataAtivacao": 20230810, "DataDesativacao": null, "Faixas_Via": 3, "Faixas_Fis": 3, "TemContagem": "S", "Lon": -38.55027734, "Lat": -3.82347932 }, "geometry": { "type": "Point", "coordinates": [ -38.55027734, -3.82347932 ] } },
{ "type": "Feature", "properties": { "fid": 68, "Sitio": "06702087", "Status": "Ativo", "Finalidade": "Fiscalizacao", "Endereco": "Av. Pres. Costa e Silva x Av. I [O-L]", "ViaSentido": "Av. Pres. Costa e Silva [O-L]", "Bairro": "Prefeito José Walter", "Regional": "SR 8", "DataAtivacao": 20230810, "DataDesativacao": null, "Faixas_Via": 3, "Faixas_Fis": 3, "TemContagem": "S", "Lon": -38.55063343, "Lat": -3.82349182 }, "geometry": { "type": "Point", "coordinates": [ -38.55063343, -3.82349182 ] } },
{ "type": "Feature", "properties": { "fid": 69, "Sitio": "06702088", "Status": "Ativo", "Finalidade": "Fiscalizacao", "Endereco": "Av. Sen. Fernandes Tavora x R. Cardeal Arcoverde [L-O]", "ViaSentido": "Av. Sen. Fernandes Tavora [L-O]", "Bairro": "Dom Lustosa", "Regional": "SR 11", "DataAtivacao": 20230824, "DataDesativacao": null, "Faixas_Via": 2, "Faixas_Fis": 2, "TemContagem": "S", "Lon": -38.59380266, "Lat": -3.75595736 }, "geometry": { "type": "Point", "coordinates": [ -38.59380266, -3.75595736 ] } },
{ "type": "Feature", "properties": { "fid": 70, "Sitio": "06702089", "Status": "Ativo", "Finalidade": "Fiscalizacao", "Endereco": "Av. Sen. Fernandes Tavora x R. Cardeal Arcoverde [O-L]", "ViaSentido": "Av. Sen. Fernandes Tavora [O-L]", "Bairro": "Autran Nunes", "Regional": "SR 11", "DataAtivacao": 20230824, "DataDesativacao": null, "Faixas_Via": 2, "Faixas_Fis": 2, "TemContagem": "S", "Lon": -38.5940388, "Lat": -3.75595611 }, "geometry": { "type": "Point", "coordinates": [ -38.5940388, -3.75595611 ] } },
{ "type": "Feature", "properties": { "fid": 71, "Sitio": "06702090", "Status": "Ativo", "Finalidade": "Fiscalizacao", "Endereco": "Av. Expedicionarios x R. Andre Chaves [N-S]", "ViaSentido": "Av. Expedicionarios [N-S]", "Bairro": "Jardim América", "Regional": "SR 4", "DataAtivacao": 20230814, "DataDesativacao": null, "Faixas_Via": 2, "Faixas_Fis": 2, "TemContagem": "S", "Lon": -38.53889061, "Lat": -3.75725177 }, "geometry": { "type": "Point", "coordinates": [ -38.53889061, -3.75725177 ] } },
{ "type": "Feature", "properties": { "fid": 72, "Sitio": "06702091", "Status": "Ativo", "Finalidade": "Fiscalizacao", "Endereco": "Av. Expedicionarios x R. Andre Chaves [S-N]", "ViaSentido": "Av. Expedicionarios [S-N]", "Bairro": "Parreão", "Regional": "SR 4", "DataAtivacao": 20230814, "DataDesativacao": null, "Faixas_Via": 2, "Faixas_Fis": 2, "TemContagem": "S", "Lon": -38.53886391, "Lat": -3.75741293 }, "geometry": { "type": "Point", "coordinates": [ -38.53886391, -3.75741293 ] } },
{ "type": "Feature", "properties": { "fid": 73, "Sitio": "06702092", "Status": "Ativo", "Finalidade": "Fiscalizacao", "Endereco": "Av. Alberto Craveiro x R. General Romel [N-S]", "ViaSentido": "Av. Alberto Craveiro [N-S]", "Bairro": "Boa Vista/Castelão", "Regional": "SR 8", "DataAtivacao": 20230823, "DataDesativacao": null, "Faixas_Via": 4, "Faixas_Fis": 4, "TemContagem": "S", "Lon": -38.51901038, "Lat": -3.79876673 }, "geometry": { "type": "Point", "coordinates": [ -38.51901038, -3.79876673 ] } },
{ "type": "Feature", "properties": { "fid": 74, "Sitio": "06702093", "Status": "Ativo", "Finalidade": "Fiscalizacao", "Endereco": "Av. Alberto Craveiro x R. General Romel [S-N]", "ViaSentido": "Av. Alberto Craveiro [S-N]", "Bairro": "Boa Vista/Castelão", "Regional": "SR 8", "DataAtivacao": 20230823, "DataDesativacao": null, "Faixas_Via": 4, "Faixas_Fis": 4, "TemContagem": "S", "Lon": -38.51881172, "Lat": -3.79880671 }, "geometry": { "type": "Point", "coordinates": [ -38.51881172, -3.79880671 ] } },
{ "type": "Feature", "properties": { "fid": 75, "Sitio": "06702094", "Status": "Ativo", "Finalidade": "Fiscalizacao", "Endereco": "Av. Americo Barreira x R. Ceara [N-S]", "ViaSentido": "Av. Americo Barreira [N-S]", "Bairro": "Panamericano", "Regional": "SR 11", "DataAtivacao": 20230809, "DataDesativacao": null, "Faixas_Via": 3, "Faixas_Fis": 2, "TemContagem": "S", "Lon": -38.56411945, "Lat": -3.759882 }, "geometry": { "type": "Point", "coordinates": [ -38.56411945, -3.759882 ] } },
{ "type": "Feature", "properties": { "fid": 76, "Sitio": "06702095", "Status": "Ativo", "Finalidade": "Fiscalizacao", "Endereco": "Av. Joao Pessoa x R. Professor Costa Mendes [S-N]", "ViaSentido": "Av. Joao Pessoa [S-N]", "Bairro": "Damas", "Regional": "SR 4", "DataAtivacao": 20230911, "DataDesativacao": null, "Faixas_Via": 2, "Faixas_Fis": 2, "TemContagem": "S", "Lon": -38.54946915, "Lat": -3.75250583 }, "geometry": { "type": "Point", "coordinates": [ -38.54946915, -3.75250583 ] } },
{ "type": "Feature", "properties": { "fid": 77, "Sitio": "06702096", "Status": "Ativo", "Finalidade": "Fiscalizacao", "Endereco": "Av. 13 de Maio x R. Senador Pompeu [L-O]", "ViaSentido": "Av. 13 de Maio [L-O]", "Bairro": "Fátima", "Regional": "SR 4", "DataAtivacao": 20230911, "DataDesativacao": null, "Faixas_Via": 2, "Faixas_Fis": 2, "TemContagem": "S", "Lon": -38.53486518, "Lat": -3.74450541 }, "geometry": { "type": "Point", "coordinates": [ -38.53486518, -3.74450541 ] } },
{ "type": "Feature", "properties": { "fid": 78, "Sitio": "06702097", "Status": "Ativo", "Finalidade": "Fiscalizacao", "Endereco": "Av. Farias Brito x R. Julio Abreu [L-O]", "ViaSentido": "Av. Farias Brito [L-O]", "Bairro": "Varjota", "Regional": "SR 2", "DataAtivacao": 20230824, "DataDesativacao": null, "Faixas_Via": 4, "Faixas_Fis": 4, "TemContagem": "S", "Lon": -38.48691521, "Lat": -3.73588204 }, "geometry": { "type": "Point", "coordinates": [ -38.48691521, -3.73588204 ] } },
{ "type": "Feature", "properties": { "fid": 79, "Sitio": "06702098", "Status": "Ativo", "Finalidade": "Fiscalização", "Endereco": "Av. Jose Bastos x R. Miguel Goncalves [N-S]", "ViaSentido": "Av. Jose Bastos [N-S]", "Bairro": "Bela Vista", "Regional": "SR 11", "DataAtivacao": 20231101, "DataDesativacao": null, "Faixas_Via": 3, "Faixas_Fis": 3, "TemContagem": "S", "Lon": -38.55748991, "Lat": -3.75667048 }, "geometry": { "type": "Point", "coordinates": [ -38.55748991, -3.75667048 ] } },
{ "type": "Feature", "properties": { "fid": 80, "Sitio": "06702099", "Status": "Ativo", "Finalidade": "Fiscalização", "Endereco": "Av. Jose Bastos x R. Miguel Goncalves [S-N]", "ViaSentido": "Av. Jose Bastos [S-N]", "Bairro": "Bela Vista", "Regional": "SR 11", "DataAtivacao": 20231101, "DataDesativacao": null, "Faixas_Via": 3, "Faixas_Fis": 3, "TemContagem": "S", "Lon": -38.55739603, "Lat": -3.75692207 }, "geometry": { "type": "Point", "coordinates": [ -38.55739603, -3.75692207 ] } },
{ "type": "Feature", "properties": { "fid": 81, "Sitio": "06702100", "Status": "Ativo", "Finalidade": "Fiscalização", "Endereco": "Av. Dr. Silas Munguba x R. Vicente Paraibano [L-O]", "ViaSentido": "Av. Silas Munguba [L-O]", "Bairro": "Serrinha", "Regional": "SR 8", "DataAtivacao": 20231025, "DataDesativacao": null, "Faixas_Via": 2, "Faixas_Fis": 2, "TemContagem": "S", "Lon": -38.53846147, "Lat": -3.79090969 }, "geometry": { "type": "Point", "coordinates": [ -38.53846147, -3.79090969 ] } },
{ "type": "Feature", "properties": { "fid": 82, "Sitio": "06702101", "Status": "Ativo", "Finalidade": "Fiscalização", "Endereco": "Av. Dr. Silas Munguba x R. Vicente Paraibano [O-L]", "ViaSentido": "Av. Silas Munguba [O-L]", "Bairro": "Itaperi", "Regional": "SR 8", "DataAtivacao": 20231025, "DataDesativacao": null, "Faixas_Via": 2, "Faixas_Fis": 2, "TemContagem": "S", "Lon": -38.53869665, "Lat": -3.79106298 }, "geometry": { "type": "Point", "coordinates": [ -38.53869665, -3.79106298 ] } },
{ "type": "Feature", "properties": { "fid": 83, "Sitio": "06702104", "Status": "Ativo", "Finalidade": "Fiscalização", "Endereco": "Av. Domingos Olimpio x Av. Imperador [L-O]", "ViaSentido": "Av. Domingos Olimpio [L-O]", "Bairro": "Benfica", "Regional": "SR 4", "DataAtivacao": 20231205, "DataDesativacao": null, "Faixas_Via": 3, "Faixas_Fis": 3, "TemContagem": "S", "Lon": -38.53651619, "Lat": -3.73481236 }, "geometry": { "type": "Point", "coordinates": [ -38.53651619, -3.73481236 ] } },
{ "type": "Feature", "properties": { "fid": 84, "Sitio": "06702105", "Status": "Ativo", "Finalidade": "Fiscalização", "Endereco": "Av. Domingos Olimpio x Av. Imperador [O-L]", "ViaSentido": "Av. Domingos Olimpio [O-L]", "Bairro": "Farias Brito", "Regional": "SR 3", "DataAtivacao": 20231205, "DataDesativacao": null, "Faixas_Via": 3, "Faixas_Fis": 3, "TemContagem": "S", "Lon": -38.53685176, "Lat": -3.73493667 }, "geometry": { "type": "Point", "coordinates": [ -38.53685176, -3.73493667 ] } },
{ "type": "Feature", "properties": { "fid": 85, "Sitio": "06702106", "Status": "Ativo", "Finalidade": "Fiscalização", "Endereco": "Av. Pres. Castelo Branco, 600 [L-O]", "ViaSentido": "Av. Pres. Castelo Branco [L-O]", "Bairro": "Moura Brasil", "Regional": "SR 12", "DataAtivacao": 20231206, "DataDesativacao": null, "Faixas_Via": 4, "Faixas_Fis": 3, "TemContagem": "S", "Lon": -38.53248316, "Lat": -3.71898255 }, "geometry": { "type": "Point", "coordinates": [ -38.53248316, -3.71898255 ] } },
{ "type": "Feature", "properties": { "fid": 86, "Sitio": "06702107", "Status": "Ativo", "Finalidade": "Fiscalização", "Endereco": "Av. Pres. Castelo Branco, 675 [O-L]", "ViaSentido": "Av. Pres. Castelo Branco [O-L]", "Bairro": "Moura Brasil", "Regional": "SR 12", "DataAtivacao": 20231206, "DataDesativacao": null, "Faixas_Via": 4, "Faixas_Fis": 3, "TemContagem": "S", "Lon": -38.53253412, "Lat": -3.71928233 }, "geometry": { "type": "Point", "coordinates": [ -38.53253412, -3.71928233 ] } },
{ "type": "Feature", "properties": { "fid": 87, "Sitio": "06702108", "Status": "Ativo", "Finalidade": "Fiscalização", "Endereco": "Av. Eng. Santana Junior x Rua Prof. Sila Ribeiro [N-S]", "ViaSentido": "Av. Eng. Santana Junior [N-S]", "Bairro": "Papicu", "Regional": "SR 2", "DataAtivacao": 20240229, "DataDesativacao": null, "Faixas_Via": 3, "Faixas_Fis": 3, "TemContagem": "S", "Lon": -38.48288183, "Lat": -3.73688292 }, "geometry": { "type": "Point", "coordinates": [ -38.48288183, -3.73688292 ] } },
{ "type": "Feature", "properties": { "fid": 88, "Sitio": "06702109", "Status": "Ativo", "Finalidade": "Fiscalização", "Endereco": "Av. Eng. Santana Junior x Rua Prof. Sila Ribeiro [S-N]", "ViaSentido": "Av. Eng. Santana Junior [S-N]", "Bairro": "Papicu", "Regional": "SR 2", "DataAtivacao": 20240229, "DataDesativacao": null, "Faixas_Via": 3, "Faixas_Fis": 3, "TemContagem": "S", "Lon": -38.48299373, "Lat": -3.73714031 }, "geometry": { "type": "Point", "coordinates": [ -38.48299373, -3.73714031 ] } },
{ "type": "Feature", "properties": { "fid": 89, "Sitio": "06702110", "Status": "Ativo", "Finalidade": "Fiscalização", "Endereco": "Av. Eng. Santana Junior x Rua Gal. Tertuliano Potiguara [N-S]", "ViaSentido": "Av. Eng. Santana Junior [N-S]", "Bairro": "Cocó", "Regional": "SR 7", "DataAtivacao": 20240130, "DataDesativacao": null, "Faixas_Via": 3, "Faixas_Fis": 3, "TemContagem": "S", "Lon": -38.48945893, "Lat": -3.7466064 }, "geometry": { "type": "Point", "coordinates": [ -38.48945893, -3.7466064 ] } },
{ "type": "Feature", "properties": { "fid": 90, "Sitio": "06702111", "Status": "Ativo", "Finalidade": "Fiscalização", "Endereco": "Av. Eng. Santana Junior x Rua Gal. Tertuliano Potiguara [S-N]", "ViaSentido": "Av. Eng. Santana Junior [S-N]", "Bairro": "Cocó", "Regional": "SR 7", "DataAtivacao": 20240130, "DataDesativacao": null, "Faixas_Via": 3, "Faixas_Fis": 3, "TemContagem": "S", "Lon": -38.48946462, "Lat": -3.74674835 }, "geometry": { "type": "Point", "coordinates": [ -38.48946462, -3.74674835 ] } },
{ "type": "Feature", "properties": { "fid": 91, "Sitio": "06702112", "Status": "Ativo", "Finalidade": "Fiscalização", "Endereco": "Av. Abolicao x Rua Joaquim Nabuco [L-O]", "ViaSentido": "Av. Abolicao [L-O]", "Bairro": "Meireles", "Regional": "SR 2", "DataAtivacao": 20240118, "DataDesativacao": null, "Faixas_Via": 3, "Faixas_Fis": 3, "TemContagem": "S", "Lon": -38.49832532, "Lat": -3.72628985 }, "geometry": { "type": "Point", "coordinates": [ -38.49832532, -3.72628985 ] } },
{ "type": "Feature", "properties": { "fid": 92, "Sitio": "06702113", "Status": "Ativo", "Finalidade": "Fiscalização", "Endereco": "Av. Abolicao x Rua Joaquim Nabuco [O-L]", "ViaSentido": "Av. Abolicao [O-L]", "Bairro": "Meireles", "Regional": "SR 2", "DataAtivacao": 20240118, "DataDesativacao": null, "Faixas_Via": 3, "Faixas_Fis": 3, "TemContagem": "S", "Lon": -38.49856135, "Lat": -3.72646918 }, "geometry": { "type": "Point", "coordinates": [ -38.49856135, -3.72646918 ] } },
{ "type": "Feature", "properties": { "fid": 93, "Sitio": "06702114", "Status": "Ativo", "Finalidade": "Fiscalização", "Endereco": "Av. Bezerra de Menezes, 1820 - Oposto [O-L]", "ViaSentido": "Av. Bezerra de Menezes [O-L]", "Bairro": "São Gerardo", "Regional": "SR 3", "DataAtivacao": 20240209, "DataDesativacao": null, "Faixas_Via": 4, "Faixas_Fis": 2, "TemContagem": "S", "Lon": -38.56137038, "Lat": -3.7351229 }, "geometry": { "type": "Point", "coordinates": [ -38.56137038, -3.7351229 ] } },
{ "type": "Feature", "properties": { "fid": 94, "Sitio": "06702115", "Status": "Ativo", "Finalidade": "Fiscalização", "Endereco": "Av. Frei Cirilo, 4000 [N-S]", "ViaSentido": "Av. Frei Cirilo [N-S]", "Bairro": "Messejana", "Regional": "SR 6", "DataAtivacao": 20240117, "DataDesativacao": null, "Faixas_Via": 2, "Faixas_Fis": 2, "TemContagem": "S", "Lon": -38.49702362, "Lat": -3.81845702 }, "geometry": { "type": "Point", "coordinates": [ -38.49702362, -3.81845702 ] } },
{ "type": "Feature", "properties": { "fid": 95, "Sitio": "06702116", "Status": "Ativo", "Finalidade": "Fiscalização", "Endereco": "Av. Frei Cirilo, 3939 [S-N]", "ViaSentido": "Av. Frei Cirilo [S-N]", "Bairro": "Messejana", "Regional": "SR 6", "DataAtivacao": 20240117, "DataDesativacao": null, "Faixas_Via": 2, "Faixas_Fis": 2, "TemContagem": "S", "Lon": -38.49678905, "Lat": -3.81846152 }, "geometry": { "type": "Point", "coordinates": [ -38.49678905, -3.81846152 ] } },
{ "type": "Feature", "properties": { "fid": 96, "Sitio": "06702117", "Status": "Ativo", "Finalidade": "Fiscalização", "Endereco": "Rua Conego de Castro x Rua Delta [N-S]", "ViaSentido": "Rua Conego de Castro [N-S]", "Bairro": "Vila Peri", "Regional": "SR 4", "DataAtivacao": 20240318, "DataDesativacao": null, "Faixas_Via": 1, "Faixas_Fis": 1, "TemContagem": "S", "Lon": -38.57695852, "Lat": -3.78878433 }, "geometry": { "type": "Point", "coordinates": [ -38.57695852, -3.78878433 ] } },
{ "type": "Feature", "properties": { "fid": 97, "Sitio": "06702118", "Status": "Ativo", "Finalidade": "Fiscalização", "Endereco": "Rua Conego de Castro x Rua Delta [S-N]", "ViaSentido": "Rua Conego de Castro [S-N]", "Bairro": "Vila Peri", "Regional": "SR 4", "DataAtivacao": 20240318, "DataDesativacao": null, "Faixas_Via": 1, "Faixas_Fis": 1, "TemContagem": "S", "Lon": -38.57702393, "Lat": -3.78900713 }, "geometry": { "type": "Point", "coordinates": [ -38.57702393, -3.78900713 ] } },
{ "type": "Feature", "properties": { "fid": 98, "Sitio": "06702119", "Status": "Ativo", "Finalidade": "Fiscalização", "Endereco": "Av. Juscelino Kubitschek x Rua Sao Tomaz de Aquino [S-N]", "ViaSentido": "Av. Juscelino Kubitschek [S-N]", "Bairro": "Passaré", "Regional": "SR 8", "DataAtivacao": 20240312, "DataDesativacao": null, "Faixas_Via": 3, "Faixas_Fis": 3, "TemContagem": "S", "Lon": -38.52980692, "Lat": -3.81384675 }, "geometry": { "type": "Point", "coordinates": [ -38.52980692, -3.81384675 ] } },
{ "type": "Feature", "properties": { "fid": 99, "Sitio": "06702120", "Status": "Ativo", "Finalidade": "Fiscalização", "Endereco": "Av. Juscelino Kubitschek x Rua Sao Tomaz de Aquino [N-S]", "ViaSentido": "Av. Juscelino Kubitschek [N-S]", "Bairro": "Passaré", "Regional": "SR 8", "DataAtivacao": 20240312, "DataDesativacao": null, "Faixas_Via": 3, "Faixas_Fis": 3, "TemContagem": "S", "Lon": -38.52976519, "Lat": -3.81365996 }, "geometry": { "type": "Point", "coordinates": [ -38.52976519, -3.81365996 ] } },
{ "type": "Feature", "properties": { "fid": 100, "Sitio": "06702121", "Status": "Ativo", "Finalidade": "Fiscalização", "Endereco": "Av. Presidente Castelo Branco x Av. Dr. Theberge [L-O]", "ViaSentido": "Av. Pres. Castelo Branco [L-O]", "Bairro": "Cristo Redentor", "Regional": "SR 1", "DataAtivacao": 20240322, "DataDesativacao": null, "Faixas_Via": 3, "Faixas_Fis": 3, "TemContagem": "S", "Lon": -38.56321367, "Lat": -3.70989824 }, "geometry": { "type": "Point", "coordinates": [ -38.56321367, -3.70989824 ] } },
{ "type": "Feature", "properties": { "fid": 101, "Sitio": "06702122", "Status": "Ativo", "Finalidade": "Fiscalização", "Endereco": "Av. Augusto dos Anjos x Rua Perdigao de Oliveira [N-S]", "ViaSentido": "Av. Augusto dos Anjos [N-S]", "Bairro": "Jóquei Clube", "Regional": "SR 11", "DataAtivacao": 20240801, "DataDesativacao": null, "Faixas_Via": 1, "Faixas_Fis": 1, "TemContagem": "S", "Lon": -38.57472496, "Lat": -3.77499696 }, "geometry": { "type": "Point", "coordinates": [ -38.57472496, -3.77499696 ] } },
{ "type": "Feature", "properties": { "fid": 102, "Sitio": "06702123", "Status": "Ativo", "Finalidade": "Fiscalização", "Endereco": "Av. Augusto dos Anjos x Rua Perdigao de Oliveira [S-N]", "ViaSentido": "Av. Augusto dos Anjos [S-N]", "Bairro": "Parangaba", "Regional": "SR 4", "DataAtivacao": 20240801, "DataDesativacao": null, "Faixas_Via": 1, "Faixas_Fis": 1, "TemContagem": "S", "Lon": -38.57474729, "Lat": -3.77528978 }, "geometry": { "type": "Point", "coordinates": [ -38.57474729, -3.77528978 ] } },
{ "type": "Feature", "properties": { "fid": 103, "Sitio": "06702125", "Status": "Ativo", "Finalidade": "Fiscalização", "Endereco": "Av. Borges de Melo, 1247 [O-L]", "ViaSentido": "Av. Borges de Melo [O-L]", "Bairro": "Parreão", "Regional": "SR 4", "DataAtivacao": 20240603, "DataDesativacao": null, "Faixas_Via": 3, "Faixas_Fis": 2, "TemContagem": "S", "Lon": -38.5305704, "Lat": -3.75966077 }, "geometry": { "type": "Point", "coordinates": [ -38.5305704, -3.75966077 ] } },
{ "type": "Feature", "properties": { "fid": 104, "Sitio": "06702126", "Status": "Ativo", "Finalidade": "Fiscalização", "Endereco": "Av. Demetrio Menezes x Rua Balduino Freire [N-S]", "ViaSentido": "Av. Demetrio Menezes [N-S]", "Bairro": "Antônio Bezerra", "Regional": "SR 3", "DataAtivacao": 20240722, "DataDesativacao": null, "Faixas_Via": 2, "Faixas_Fis": 2, "TemContagem": "S", "Lon": -38.58430545, "Lat": -3.73513441 }, "geometry": { "type": "Point", "coordinates": [ -38.58430545, -3.73513441 ] } },
{ "type": "Feature", "properties": { "fid": 105, "Sitio": "06702127", "Status": "Ativo", "Finalidade": "Fiscalização", "Endereco": "Av. Demetrio Menezes x Rua Balduino Freire [S-N]", "ViaSentido": "Av. Demetrio Menezes [S-N]", "Bairro": "Padre Andrade", "Regional": "SR 3", "DataAtivacao": 20240722, "DataDesativacao": null, "Faixas_Via": 2, "Faixas_Fis": 2, "TemContagem": "S", "Lon": -38.58405665, "Lat": -3.73527605 }, "geometry": { "type": "Point", "coordinates": [ -38.58405665, -3.73527605 ] } },
{ "type": "Feature", "properties": { "fid": 106, "Sitio": "06702128", "Status": "Ativo", "Finalidade": "Fiscalização", "Endereco": "Av. Pontes Vieira x Rua Capitao Gustavo [O-L]", "ViaSentido": "Av. Pontes Vieira [O-L]", "Bairro": "Tauape", "Regional": "SR 2", "DataAtivacao": 20240520, "DataDesativacao": null, "Faixas_Via": 2, "Faixas_Fis": 2, "TemContagem": "S", "Lon": -38.51729665, "Lat": -3.75326748 }, "geometry": { "type": "Point", "coordinates": [ -38.51729665, -3.75326748 ] } },
{ "type": "Feature", "properties": { "fid": 107, "Sitio": "06702129", "Status": "Ativo", "Finalidade": "Fiscalização", "Endereco": "Rua Santa Liduina x Rua Dr. Joao Amora [S-N]", "ViaSentido": "Rua Santa Liduina [S-N]", "Bairro": "Manoel Sátiro", "Regional": "SR 10", "DataAtivacao": 20240618, "DataDesativacao": null, "Faixas_Via": 2, "Faixas_Fis": 2, "TemContagem": "S", "Lon": -38.58508397, "Lat": -3.79973206 }, "geometry": { "type": "Point", "coordinates": [ -38.58508397, -3.79973206 ] } },
{ "type": "Feature", "properties": { "fid": 108, "Sitio": "06702132", "Status": "Ativo", "Finalidade": "Fiscalização", "Endereco": "Rua Julio Braga, 1338 [L-O]", "ViaSentido": "Rua Julio Braga [L-O]", "Bairro": "João XXIII", "Regional": "SR 11", "DataAtivacao": 20240820, "DataDesativacao": null, "Faixas_Via": 1, "Faixas_Fis": 1, "TemContagem": "S", "Lon": -38.58281148, "Lat": -3.77449119 }, "geometry": { "type": "Point", "coordinates": [ -38.58281148, -3.77449119 ] } },
{ "type": "Feature", "properties": { "fid": 109, "Sitio": "06702133", "Status": "Ativo", "Finalidade": "Fiscalização", "Endereco": "Rua Julio Braga, 1353 [O-L]", "ViaSentido": "Rua Julio Braga [O-L]", "Bairro": "Bonsucesso", "Regional": "SR 5", "DataAtivacao": 20240820, "DataDesativacao": null, "Faixas_Via": 1, "Faixas_Fis": 1, "TemContagem": "S", "Lon": -38.58305502, "Lat": -3.77438703 }, "geometry": { "type": "Point", "coordinates": [ -38.58305502, -3.77438703 ] } },
{ "type": "Feature", "properties": { "fid": 110, "Sitio": "06702136", "Status": "Ativo", "Finalidade": "Fiscalização", "Endereco": "Av. Rui Barbosa x Rua Tenente Benévolo [N-S]", "ViaSentido": "Av. Rui Barbosa [N-S]", "Bairro": "Meireles", "Regional": "SR 2", "DataAtivacao": 20250430, "DataDesativacao": null, "Faixas_Via": 2, "Faixas_Fis": 2, "TemContagem": "S", "Lon": -38.50710489, "Lat": -3.72855917 }, "geometry": { "type": "Point", "coordinates": [ -38.50710489, -3.72855917 ] } },
{ "type": "Feature", "properties": { "fid": 111, "Sitio": "06702137", "Status": "Ativo", "Finalidade": "Fiscalização", "Endereco": "Rua Tenente Benévolo x Av. Rui Barbosa [L-O]", "ViaSentido": "Rua Tenente Benevolo [L-O]", "Bairro": "Meireles", "Regional": "SR 2", "DataAtivacao": 20250430, "DataDesativacao": null, "Faixas_Via": 2, "Faixas_Fis": 2, "TemContagem": "S", "Lon": -38.50694937, "Lat": -3.72866326 }, "geometry": { "type": "Point", "coordinates": [ -38.50694937, -3.72866326 ] } },
{ "type": "Feature", "properties": { "fid": 112, "Sitio": "06702138", "Status": "Ativo", "Finalidade": "Fiscalização", "Endereco": "Av. Borges de Melo, 1196 [L-O]", "ViaSentido": "Av. Borges de Melo [L-O]", "Bairro": "Fátima", "Regional": "SR 4", "DataAtivacao": 20250225, "DataDesativacao": null, "Faixas_Via": 2, "Faixas_Fis": 2, "TemContagem": "S", "Lon": -38.53003875, "Lat": -3.75983585 }, "geometry": { "type": "Point", "coordinates": [ -38.53003875, -3.75983585 ] } },
{ "type": "Feature", "properties": { "fid": 113, "Sitio": "06709027", "Status": "Ativo", "Finalidade": "Fiscalizacao", "Endereco": "R. General Sampaio, 1572 - Oposto [S-N]", "ViaSentido": "Rua Gal. Sampaio [S-N]", "Bairro": "Centro", "Regional": "SR 12", "DataAtivacao": 20180118, "DataDesativacao": null, "Faixas_Via": 2, "Faixas_Fis": 1, "TemContagem": "S", "Lon": -38.532498, "Lat": -3.73253 }, "geometry": { "type": "Point", "coordinates": [ -38.532498, -3.73253 ] } },
{ "type": "Feature", "properties": { "fid": 114, "Sitio": "06709028", "Status": "Ativo", "Finalidade": "Fiscalizacao", "Endereco": "R. General Sampaio, 1513 [S-N]", "ViaSentido": "Rua Gal. Sampaio [S-N]", "Bairro": "Centro", "Regional": "SR 12", "DataAtivacao": 20180118, "DataDesativacao": null, "Faixas_Via": 2, "Faixas_Fis": 1, "TemContagem": "S", "Lon": -38.532183, "Lat": -3.73149 }, "geometry": { "type": "Point", "coordinates": [ -38.532183, -3.73149 ] } },
{ "type": "Feature", "properties": { "fid": 115, "Sitio": "06709029", "Status": "Ativo", "Finalidade": "Fiscalizacao", "Endereco": "R. General Sampaio, 1397 [S-N]", "ViaSentido": "Rua Gal. Sampaio [S-N]", "Bairro": "Centro", "Regional": "SR 12", "DataAtivacao": 20180118, "DataDesativacao": null, "Faixas_Via": 2, "Faixas_Fis": 1, "TemContagem": "S", "Lon": -38.531918, "Lat": -3.73062 }, "geometry": { "type": "Point", "coordinates": [ -38.531918, -3.73062 ] } },
{ "type": "Feature", "properties": { "fid": 116, "Sitio": "06709030", "Status": "Ativo", "Finalidade": "Fiscalizacao", "Endereco": "R. General Sampaio, 1235 [S-N]", "ViaSentido": "Rua Gal. Sampaio [S-N]", "Bairro": "Centro", "Regional": "SR 12", "DataAtivacao": 20180118, "DataDesativacao": null, "Faixas_Via": 2, "Faixas_Fis": 1, "TemContagem": "S", "Lon": -38.531526, "Lat": -3.72933 }, "geometry": { "type": "Point", "coordinates": [ -38.531526, -3.72933 ] } },
{ "type": "Feature", "properties": { "fid": 117, "Sitio": "06709031", "Status": "Ativo", "Finalidade": "Fiscalizacao", "Endereco": "R. General Sampaio, 1131 [S-N]", "ViaSentido": "Rua Gal. Sampaio [S-N]", "Bairro": "Centro", "Regional": "SR 12", "DataAtivacao": 20180122, "DataDesativacao": null, "Faixas_Via": 2, "Faixas_Fis": 1, "TemContagem": "S", "Lon": -38.531243, "Lat": -3.72832 }, "geometry": { "type": "Point", "coordinates": [ -38.531243, -3.72832 ] } },
{ "type": "Feature", "properties": { "fid": 118, "Sitio": "06709035", "Status": "Ativo", "Finalidade": "Fiscalizacao", "Endereco": "Av. Aguanambi, 358 [N-S]", "ViaSentido": "Av. Aguanambi [N-S]", "Bairro": "José Bonifácio", "Regional": "SR 4", "DataAtivacao": 20230916, "DataDesativacao": null, "Faixas_Via": 3, "Faixas_Fis": 1, "TemContagem": "S", "Lon": -38.5249105, "Lat": -3.74015538 }, "geometry": { "type": "Point", "coordinates": [ -38.5249105, -3.74015538 ] } },
{ "type": "Feature", "properties": { "fid": 119, "Sitio": "06709036", "Status": "Ativo", "Finalidade": "Fiscalizacao", "Endereco": "Av. Aguanambi, 500 [N-S]", "ViaSentido": "Av. Aguanambi [N-S]", "Bairro": "José Bonifácio", "Regional": "SR 4", "DataAtivacao": 20230928, "DataDesativacao": null, "Faixas_Via": 3, "Faixas_Fis": 1, "TemContagem": "S", "Lon": -38.5259567, "Lat": -3.74165955 }, "geometry": { "type": "Point", "coordinates": [ -38.5259567, -3.74165955 ] } },
{ "type": "Feature", "properties": { "fid": 120, "Sitio": "06709039", "Status": "Ativo", "Finalidade": "Fiscalizacao", "Endereco": "Av. Aguanambi, 933 - Oposto [N-S]", "ViaSentido": "Av. Aguanambi [N-S]", "Bairro": "Fátima", "Regional": "SR 4", "DataAtivacao": 20231005, "DataDesativacao": null, "Faixas_Via": 3, "Faixas_Fis": 1, "TemContagem": "S", "Lon": -38.52552307, "Lat": -3.74480878 }, "geometry": { "type": "Point", "coordinates": [ -38.52552307, -3.74480878 ] } },
{ "type": "Feature", "properties": { "fid": 121, "Sitio": "06709040", "Status": "Ativo", "Finalidade": "Fiscalização", "Endereco": "Av. Aguanambi, 1221 [S-N]", "ViaSentido": "Av. Aguanambi [S-N]", "Bairro": "Fátima", "Regional": "SR 4", "DataAtivacao": 20231104, "DataDesativacao": null, "Faixas_Via": 3, "Faixas_Fis": 1, "TemContagem": "S", "Lon": -38.52452289, "Lat": -3.74728866 }, "geometry": { "type": "Point", "coordinates": [ -38.52452289, -3.74728866 ] } },
{ "type": "Feature", "properties": { "fid": 122, "Sitio": "06709041", "Status": "Ativo", "Finalidade": "Fiscalização", "Endereco": "Av. Aguanambi, 1200 [N-S]", "ViaSentido": "Av. Aguanambi [N-S]", "Bairro": "Fátima", "Regional": "SR 4", "DataAtivacao": 20231104, "DataDesativacao": null, "Faixas_Via": 3, "Faixas_Fis": 1, "TemContagem": "S", "Lon": -38.5249397, "Lat": -3.74725272 }, "geometry": { "type": "Point", "coordinates": [ -38.5249397, -3.74725272 ] } },
{ "type": "Feature", "properties": { "fid": 123, "Sitio": "06709042", "Status": "Ativo", "Finalidade": "Fiscalizacao", "Endereco": "Av. Aguanambi, 1505 [S-N]", "ViaSentido": "Av. Aguanambi [S-N]", "Bairro": "Fátima", "Regional": "SR 4", "DataAtivacao": 20230930, "DataDesativacao": null, "Faixas_Via": 3, "Faixas_Fis": 1, "TemContagem": "S", "Lon": -38.5237207, "Lat": -3.7498759 }, "geometry": { "type": "Point", "coordinates": [ -38.5237207, -3.7498759 ] } },
{ "type": "Feature", "properties": { "fid": 124, "Sitio": "06709043", "Status": "Ativo", "Finalidade": "Fiscalizacao", "Endereco": "Av. Aguanambi, 1505 - Oposto [N-S]", "ViaSentido": "Av. Aguanambi [N-S]", "Bairro": "Fátima", "Regional": "SR 4", "DataAtivacao": 20230930, "DataDesativacao": null, "Faixas_Via": 3, "Faixas_Fis": 1, "TemContagem": "S", "Lon": -38.5237577, "Lat": -3.7499267 }, "geometry": { "type": "Point", "coordinates": [ -38.5237577, -3.7499267 ] } },
{ "type": "Feature", "properties": { "fid": 125, "Sitio": "AT089", "Status": "Ativo", "Finalidade": "Fiscalizacao", "Endereco": "Av. Godofredo Maciel, 3800 - Oposto [S-N]", "ViaSentido": "Av. Godofredo Maciel [S-N]", "Bairro": "Mondubim", "Regional": "SR 10", "DataAtivacao": 20130429, "DataDesativacao": null, "Faixas_Via": 1, "Faixas_Fis": 1, "TemContagem": "S", "Lon": -38.573536, "Lat": -3.80835 }, "geometry": { "type": "Point", "coordinates": [ -38.573536, -3.80835 ] } },
{ "type": "Feature", "properties": { "fid": 126, "Sitio": "AT200", "Status": "Ativo", "Finalidade": "Fiscalizacao", "Endereco": "Av. Eng. Humberto Monte, 1410 [L-O]", "ViaSentido": "Av. Eng. Humberto Monte [L-O]", "Bairro": "Amadeu Furtado", "Regional": "SR 3", "DataAtivacao": 20130910, "DataDesativacao": null, "Faixas_Via": 3, "Faixas_Fis": 3, "TemContagem": "S", "Lon": -38.561371, "Lat": -3.74792 }, "geometry": { "type": "Point", "coordinates": [ -38.561371, -3.74792 ] } },
{ "type": "Feature", "properties": { "fid": 127, "Sitio": "AT245", "Status": "Ativo", "Finalidade": "Fiscalizacao", "Endereco": "Av. Santos Dumont, 24m apos a R. Alfredo Barreira Filho [O-L]", "ViaSentido": "Av. Santos Dumont [O-L]", "Bairro": "De Lourdes", "Regional": "SR 2", "DataAtivacao": 20220127, "DataDesativacao": null, "Faixas_Via": 3, "Faixas_Fis": 3, "TemContagem": "S", "Lon": -38.462412, "Lat": -3.74788 }, "geometry": { "type": "Point", "coordinates": [ -38.462412, -3.74788 ] } },
{ "type": "Feature", "properties": { "fid": 128, "Sitio": "AT246", "Status": "Ativo", "Finalidade": "Fiscalizacao", "Endereco": "Av. Santos Dumont, 7771 [L-O]", "ViaSentido": "Av. Santos Dumont [L-O]", "Bairro": "De Lourdes", "Regional": "SR 2", "DataAtivacao": 20220127, "DataDesativacao": null, "Faixas_Via": 3, "Faixas_Fis": 3, "TemContagem": "S", "Lon": -38.461226, "Lat": -3.74815 }, "geometry": { "type": "Point", "coordinates": [ -38.461226, -3.74815 ] } },
{ "type": "Feature", "properties": { "fid": 129, "Sitio": "AT247", "Status": "Ativo", "Finalidade": "Fiscalizacao", "Endereco": "Av. Alm. Henrique Saboia, 7m apos a R. Beni de Carvalho [S-N]", "ViaSentido": "Av. Alm. Henrique Saboia [S-N]", "Bairro": "Cocó", "Regional": "SR 7", "DataAtivacao": 20220127, "DataDesativacao": null, "Faixas_Via": 3, "Faixas_Fis": 3, "TemContagem": "S", "Lon": -38.491712, "Lat": -3.74684 }, "geometry": { "type": "Point", "coordinates": [ -38.491712, -3.74684 ] } },
{ "type": "Feature", "properties": { "fid": 130, "Sitio": "AT248", "Status": "Ativo", "Finalidade": "Fiscalizacao", "Endereco": "Av. Jovita Feitosa, 2440 [L-O]", "ViaSentido": "Av. Jovita Feitosa [L-O]", "Bairro": "Parquelândia", "Regional": "SR 3", "DataAtivacao": 20220202, "DataDesativacao": null, "Faixas_Via": 3, "Faixas_Fis": 1, "TemContagem": "S", "Lon": -38.559439, "Lat": -3.74041 }, "geometry": { "type": "Point", "coordinates": [ -38.559439, -3.74041 ] } },
{ "type": "Feature", "properties": { "fid": 131, "Sitio": "AT249", "Status": "Ativo", "Finalidade": "Fiscalizacao", "Endereco": "Av. Jose Jatahy, 2040 [N-S]", "ViaSentido": "Av. Jose Jatahy [N-S]", "Bairro": "Rodolfo Teófilo", "Regional": "SR 3", "DataAtivacao": 20220202, "DataDesativacao": null, "Faixas_Via": 2, "Faixas_Fis": 1, "TemContagem": "S", "Lon": -38.543475, "Lat": -3.73966 }, "geometry": { "type": "Point", "coordinates": [ -38.543475, -3.73966 ] } },
{ "type": "Feature", "properties": { "fid": 132, "Sitio": "AT251", "Status": "Ativo", "Finalidade": "Fiscalizacao", "Endereco": "Av. Humberto Monte, 1355 [O-L]", "ViaSentido": "Av. Eng. Humberto Monte [O-L]", "Bairro": "Bela Vista", "Regional": "SR 11", "DataAtivacao": 20230919, "DataDesativacao": null, "Faixas_Via": 3, "Faixas_Fis": 2, "TemContagem": "S", "Lon": -38.5618213, "Lat": -3.7475237 }, "geometry": { "type": "Point", "coordinates": [ -38.5618213, -3.7475237 ] } },
{ "type": "Feature", "properties": { "fid": 133, "Sitio": "AT253", "Status": "Ativo", "Finalidade": "Fiscalizacao", "Endereco": "Av. Humberto Monte, 1355 [O-L]", "ViaSentido": "Av. Eng. Humberto Monte [O-L]", "Bairro": "Bela Vista", "Regional": "SR 11", "DataAtivacao": 20230919, "DataDesativacao": null, "Faixas_Via": 3, "Faixas_Fis": 1, "TemContagem": "S", "Lon": -38.54417918, "Lat": -3.73451542 }, "geometry": { "type": "Point", "coordinates": [ -38.54417918, -3.73451542 ] } },
{ "type": "Feature", "properties": { "fid": 134, "Sitio": "AT254", "Status": "Ativo", "Finalidade": "Fiscalizacao", "Endereco": "Av. Dom Manuel, 821 [N-S]", "ViaSentido": "Av. Dom Manuel [N-S]", "Bairro": "Centro", "Regional": "SR 12", "DataAtivacao": 19000100, "DataDesativacao": null, "Faixas_Via": 2, "Faixas_Fis": 2, "TemContagem": "S", "Lon": -38.5221201, "Lat": -3.73137039 }, "geometry": { "type": "Point", "coordinates": [ -38.5221201, -3.73137039 ] } },
{ "type": "Feature", "properties": { "fid": 135, "Sitio": "AT255", "Status": "Ativo", "Finalidade": "Fiscalizacao", "Endereco": "Av. Dom Manuel, 929 [S-N]", "ViaSentido": "Av. Dom Manuel [S-N]", "Bairro": "Centro", "Regional": "SR 12", "DataAtivacao": 19000100, "DataDesativacao": null, "Faixas_Via": 2, "Faixas_Fis": 2, "TemContagem": "S", "Lon": -38.5223162, "Lat": -3.73218676 }, "geometry": { "type": "Point", "coordinates": [ -38.5223162, -3.73218676 ] } },
{ "type": "Feature", "properties": { "fid": 136, "Sitio": "AT256", "Status": "Ativo", "Finalidade": "Fiscalização", "Endereco": "Av. Cel. Carvalho, 909 - Oposto [N-S]", "ViaSentido": "Av. Cel. Carvalho [N-S]", "Bairro": "Vila Velha", "Regional": "SR 1", "DataAtivacao": 20231023, "DataDesativacao": null, "Faixas_Via": 2, "Faixas_Fis": 2, "TemContagem": "S", "Lon": -38.58992182, "Lat": -3.71017865 }, "geometry": { "type": "Point", "coordinates": [ -38.58992182, -3.71017865 ] } },
{ "type": "Feature", "properties": { "fid": 137, "Sitio": "AT257", "Status": "Ativo", "Finalidade": "Fiscalização", "Endereco": "Av. Cel. Carvalho, 980 - Oposto [S-N]", "ViaSentido": "Av. Cel. Carvalho [S-N]", "Bairro": "Barra do Ceará", "Regional": "SR 1", "DataAtivacao": 20231023, "DataDesativacao": null, "Faixas_Via": 2, "Faixas_Fis": 2, "TemContagem": "S", "Lon": -38.58945292, "Lat": -3.71091725 }, "geometry": { "type": "Point", "coordinates": [ -38.58945292, -3.71091725 ] } },
{ "type": "Feature", "properties": { "fid": 138, "Sitio": "AT258", "Status": "Ativo", "Finalidade": "Fiscalização", "Endereco": "Av. Godofredo Maciel, 1021 - Oposto [N-S]", "ViaSentido": "Av. Godofredo Maciel [N-S]", "Bairro": "Parangaba", "Regional": "SR 4", "DataAtivacao": 20240216, "DataDesativacao": null, "Faixas_Via": 2, "Faixas_Fis": 2, "TemContagem": "S", "Lon": -38.56655577, "Lat": -3.78517644 }, "geometry": { "type": "Point", "coordinates": [ -38.56655577, -3.78517644 ] } },
{ "type": "Feature", "properties": { "fid": 139, "Sitio": "AT259", "Status": "Ativo", "Finalidade": "Fiscalização", "Endereco": "Av. Godofredo Maciel, 1021 - Oposto [N-S]", "ViaSentido": "Av. Godofredo Maciel [N-S]", "Bairro": "Parangaba", "Regional": "SR 4", "DataAtivacao": 20240216, "DataDesativacao": null, "Faixas_Via": 2, "Faixas_Fis": 1, "TemContagem": "S", "Lon": -38.56657474, "Lat": -3.78515373 }, "geometry": { "type": "Point", "coordinates": [ -38.56657474, -3.78515373 ] } },
{ "type": "Feature", "properties": { "fid": 140, "Sitio": "AT262", "Status": "Ativo", "Finalidade": "Fiscalização", "Endereco": "Av. Rogaciano Leite, 300 [N-S]", "ViaSentido": "Av. Rogaciano Leite [N-S]", "Bairro": "Salinas", "Regional": "SR 7", "DataAtivacao": 20231130, "DataDesativacao": null, "Faixas_Via": 3, "Faixas_Fis": 2, "TemContagem": "S", "Lon": -38.49297671, "Lat": -3.76068177 }, "geometry": { "type": "Point", "coordinates": [ -38.49297671, -3.76068177 ] } },
{ "type": "Feature", "properties": { "fid": 141, "Sitio": "AT263", "Status": "Ativo", "Finalidade": "Fiscalização", "Endereco": "Av. Rogaciano Leite, 300 [N-S]", "ViaSentido": "Av. Rogaciano Leite [N-S]", "Bairro": "Salinas", "Regional": "SR 7", "DataAtivacao": 20231130, "DataDesativacao": null, "Faixas_Via": 3, "Faixas_Fis": 1, "TemContagem": "S", "Lon": -38.49297671, "Lat": -3.76068177 }, "geometry": { "type": "Point", "coordinates": [ -38.49297671, -3.76068177 ] } },
{ "type": "Feature", "properties": { "fid": 142, "Sitio": "AT264", "Status": "Ativo", "Finalidade": "Fiscalização", "Endereco": "Av. Rogaciano Leite, 333 [S-N]", "ViaSentido": "Av. Rogaciano Leite [S-N]", "Bairro": "Guararapes", "Regional": "SR 7", "DataAtivacao": 20231130, "DataDesativacao": null, "Faixas_Via": 3, "Faixas_Fis": 2, "TemContagem": "S", "Lon": -38.49308018, "Lat": -3.7615044 }, "geometry": { "type": "Point", "coordinates": [ -38.49308018, -3.7615044 ] } },
{ "type": "Feature", "properties": { "fid": 143, "Sitio": "AT265", "Status": "Ativo", "Finalidade": "Fiscalização", "Endereco": "Av. Rogaciano Leite, 2210 [N-S]", "ViaSentido": "Av. Rogaciano Leite [N-S]", "Bairro": "Engenheiro Luciano Cavalcante", "Regional": "SR 7", "DataAtivacao": 20231130, "DataDesativacao": null, "Faixas_Via": 2, "Faixas_Fis": 2, "TemContagem": "S", "Lon": -38.49934304, "Lat": -3.77410142 }, "geometry": { "type": "Point", "coordinates": [ -38.49934304, -3.77410142 ] } },
{ "type": "Feature", "properties": { "fid": 144, "Sitio": "AT266", "Status": "Ativo", "Finalidade": "Fiscalização", "Endereco": "Av. Rogaciano Leite, 2274 - Oposto [S-N]", "ViaSentido": "Av. Rogaciano Leite [S-N]", "Bairro": "Engenheiro Luciano Cavalcante", "Regional": "SR 7", "DataAtivacao": 20231130, "DataDesativacao": null, "Faixas_Via": 2, "Faixas_Fis": 2, "TemContagem": "S", "Lon": -38.49943291, "Lat": -3.77464763 }, "geometry": { "type": "Point", "coordinates": [ -38.49943291, -3.77464763 ] } },
{ "type": "Feature", "properties": { "fid": 145, "Sitio": "AT271", "Status": "Ativo", "Finalidade": "Fiscalização", "Endereco": "Av. Alm. Henrique Saboia, 44 metros antes da Rua Carolina Sucupira [S-N]", "ViaSentido": "Av. Alm. Henrique Saboia [S-N]", "Bairro": "Cocó", "Regional": "SR 7", "DataAtivacao": 20240527, "DataDesativacao": null, "Faixas_Via": 2, "Faixas_Fis": 2, "TemContagem": "S", "Lon": -38.49010126, "Lat": -3.74478023 }, "geometry": { "type": "Point", "coordinates": [ -38.49010126, -3.74478023 ] } },
{ "type": "Feature", "properties": { "fid": 146, "Sitio": "AT272", "Status": "Ativo", "Finalidade": "Fiscalização", "Endereco": "Av. Alm. Henrique Saboia, 15 metros antes da Rua Carolina Sucupira [N-S]", "ViaSentido": "Av. Alm. Henrique Saboia [N-S]", "Bairro": "Cocó", "Regional": "SR 7", "DataAtivacao": 20240527, "DataDesativacao": null, "Faixas_Via": 2, "Faixas_Fis": 2, "TemContagem": "S", "Lon": -38.49002231, "Lat": -3.74413879 }, "geometry": { "type": "Point", "coordinates": [ -38.49002231, -3.74413879 ] } },
{ "type": "Feature", "properties": { "fid": 147, "Sitio": "AT273", "Status": "Ativo", "Finalidade": "Fiscalização", "Endereco": "Av. Pres. Castelo Branco, S.N. (Em frente à Escola de Aprendizes de Marinheiros) [O-L]", "ViaSentido": "Av. Pres. Castelo Branco [O-L]", "Bairro": "Jacarecanga", "Regional": "SR 1", "DataAtivacao": 20240222, "DataDesativacao": null, "Faixas_Via": 4, "Faixas_Fis": 2, "TemContagem": "S", "Lon": -38.54211272, "Lat": -3.71565495 }, "geometry": { "type": "Point", "coordinates": [ -38.54211272, -3.71565495 ] } },
{ "type": "Feature", "properties": { "fid": 148, "Sitio": "AT274", "Status": "Ativo", "Finalidade": "Fiscalização", "Endereco": "Av. Pres. Castelo Branco, S.N. (Em frente à Escola de Aprendizes de Marinheiros) [O-L]", "ViaSentido": "Av. Pres. Castelo Branco [O-L]", "Bairro": "Jacarecanga", "Regional": "SR 1", "DataAtivacao": 20240222, "DataDesativacao": null, "Faixas_Via": 4, "Faixas_Fis": 2, "TemContagem": "S", "Lon": -38.54205393, "Lat": -3.71554707 }, "geometry": { "type": "Point", "coordinates": [ -38.54205393, -3.71554707 ] } },
{ "type": "Feature", "properties": { "fid": 149, "Sitio": "AT275", "Status": "Ativo", "Finalidade": "Fiscalização", "Endereco": "Av. Pres. Castelo Branco, 553 - Oposto [L-O]", "ViaSentido": "Av. Pres. Castelo Branco [L-O]", "Bairro": "Moura Brasil", "Regional": "SR 12", "DataAtivacao": 20240222, "DataDesativacao": null, "Faixas_Via": 4, "Faixas_Fis": 2, "TemContagem": "S", "Lon": -38.52737434, "Lat": -3.72110406 }, "geometry": { "type": "Point", "coordinates": [ -38.52737434, -3.72110406 ] } },
{ "type": "Feature", "properties": { "fid": 150, "Sitio": "AT276", "Status": "Ativo", "Finalidade": "Fiscalização", "Endereco": "Av. Pres. Castelo Branco, 553 - Oposto [L-O]", "ViaSentido": "Av. Pres. Castelo Branco [L-O]", "Bairro": "Moura Brasil", "Regional": "SR 12", "DataAtivacao": 20240222, "DataDesativacao": null, "Faixas_Via": 4, "Faixas_Fis": 2, "TemContagem": "S", "Lon": -38.52744944, "Lat": -3.72121647 }, "geometry": { "type": "Point", "coordinates": [ -38.52744944, -3.72121647 ] } },
{ "type": "Feature", "properties": { "fid": 151, "Sitio": "AT279", "Status": "Ativo", "Finalidade": "Fiscalização", "Endereco": "Av. Godofredo Maciel, 1892 [N-S]", "ViaSentido": "Av. Godofredo Maciel [N-S]", "Bairro": "Maraponga", "Regional": "SR 10", "DataAtivacao": 20240228, "DataDesativacao": null, "Faixas_Via": 3, "Faixas_Fis": 2, "TemContagem": "S", "Lon": -38.56847589, "Lat": -3.79258878 }, "geometry": { "type": "Point", "coordinates": [ -38.56847589, -3.79258878 ] } },
{ "type": "Feature", "properties": { "fid": 152, "Sitio": "AT280", "Status": "Ativo", "Finalidade": "Fiscalização", "Endereco": "Av. Godofredo Maciel, 1892 [N-S]", "ViaSentido": "Av. Godofredo Maciel [N-S]", "Bairro": "Maraponga", "Regional": "SR 10", "DataAtivacao": 20240228, "DataDesativacao": null, "Faixas_Via": 3, "Faixas_Fis": 1, "TemContagem": "S", "Lon": -38.56828192, "Lat": -3.79273507 }, "geometry": { "type": "Point", "coordinates": [ -38.56828192, -3.79273507 ] } },
{ "type": "Feature", "properties": { "fid": 153, "Sitio": "AT281", "Status": "Ativo", "Finalidade": "Fiscalização", "Endereco": "Av. Godofredo Maciel, 1892 - Oposto [S-N]", "ViaSentido": "Av. Godofredo Maciel [S-N]", "Bairro": "Maraponga", "Regional": "SR 10", "DataAtivacao": 20240216, "DataDesativacao": null, "Faixas_Via": 3, "Faixas_Fis": 2, "TemContagem": "S", "Lon": -38.56819396, "Lat": -3.79282059 }, "geometry": { "type": "Point", "coordinates": [ -38.56819396, -3.79282059 ] } },
{ "type": "Feature", "properties": { "fid": 154, "Sitio": "AT282", "Status": "Ativo", "Finalidade": "Fiscalização", "Endereco": "Av. Godofredo Maciel, 1892 - Oposto [S-N]", "ViaSentido": "Av. Godofredo Maciel [S-N]", "Bairro": "Maraponga", "Regional": "SR 10", "DataAtivacao": 20240216, "DataDesativacao": null, "Faixas_Via": 3, "Faixas_Fis": 1, "TemContagem": "S", "Lon": -38.56827741, "Lat": -3.79274632 }, "geometry": { "type": "Point", "coordinates": [ -38.56827741, -3.79274632 ] } },
{ "type": "Feature", "properties": { "fid": 155, "Sitio": "AT283", "Status": "Ativo", "Finalidade": "Fiscalização", "Endereco": "Av. Americo Barreira, 4959 - Oposto [N-S]", "ViaSentido": "Av. Americo Barreira [N-S]", "Bairro": "Panamericano", "Regional": "SR 11", "DataAtivacao": 20240304, "DataDesativacao": null, "Faixas_Via": 3, "Faixas_Fis": 2, "TemContagem": "S", "Lon": -38.56084495, "Lat": -3.75716427 }, "geometry": { "type": "Point", "coordinates": [ -38.56084495, -3.75716427 ] } },
{ "type": "Feature", "properties": { "fid": 156, "Sitio": "AT284", "Status": "Ativo", "Finalidade": "Fiscalização", "Endereco": "Av. Americo Barreira, 4959 - Oposto [N-S]", "ViaSentido": "Av. Americo Barreira [N-S]", "Bairro": "Panamericano", "Regional": "SR 11", "DataAtivacao": 20240304, "DataDesativacao": null, "Faixas_Via": 3, "Faixas_Fis": 1, "TemContagem": "S", "Lon": -38.56084495, "Lat": -3.75716427 }, "geometry": { "type": "Point", "coordinates": [ -38.56084495, -3.75716427 ] } },
{ "type": "Feature", "properties": { "fid": 157, "Sitio": "AT286", "Status": "Ativo", "Finalidade": "Fiscalização", "Endereco": "Av. Jovita Feitosa, 369 [L-O]", "ViaSentido": "Av. Jovita Feitosa [L-O]", "Bairro": "Parque Araxá", "Regional": "SR 3", "DataAtivacao": 20240227, "DataDesativacao": null, "Faixas_Via": 2, "Faixas_Fis": 2, "TemContagem": "S", "Lon": -38.5469776, "Lat": -3.73788069 }, "geometry": { "type": "Point", "coordinates": [ -38.5469776, -3.73788069 ] } },
{ "type": "Feature", "properties": { "fid": 158, "Sitio": "AT287", "Status": "Ativo", "Finalidade": "Fiscalização", "Endereco": "Av. Jose Jatahy, 1483 [S-N]", "ViaSentido": "Av. Jose Jatahy [S-N]", "Bairro": "Farias Brito", "Regional": "SR 3", "DataAtivacao": 20240227, "DataDesativacao": null, "Faixas_Via": 2, "Faixas_Fis": 2, "TemContagem": "S", "Lon": -38.5441221, "Lat": -3.73456466 }, "geometry": { "type": "Point", "coordinates": [ -38.5441221, -3.73456466 ] } },
{ "type": "Feature", "properties": { "fid": 159, "Sitio": "AT288", "Status": "Ativo", "Finalidade": "Fiscalização", "Endereco": "Av. Pres. Castelo Branco, 5673 - Oposto [L-O]", "ViaSentido": "Av. Pres. Castelo Branco [L-O]", "Bairro": "Barra do Ceará", "Regional": "SR 1", "DataAtivacao": 20240222, "DataDesativacao": null, "Faixas_Via": 3, "Faixas_Fis": 2, "TemContagem": "S", "Lon": -38.58142685, "Lat": -3.70281181 }, "geometry": { "type": "Point", "coordinates": [ -38.58142685, -3.70281181 ] } },
{ "type": "Feature", "properties": { "fid": 160, "Sitio": "AT289", "Status": "Ativo", "Finalidade": "Fiscalização", "Endereco": "Av. Pres. Castelo Branco, 5673 - Oposto [L-O]", "ViaSentido": "Av. Pres. Castelo Branco [L-O]", "Bairro": "Barra do Ceará", "Regional": "SR 1", "DataAtivacao": 20240222, "DataDesativacao": null, "Faixas_Via": 3, "Faixas_Fis": 1, "TemContagem": "S", "Lon": -38.58153414, "Lat": -3.70288676 }, "geometry": { "type": "Point", "coordinates": [ -38.58153414, -3.70288676 ] } },
{ "type": "Feature", "properties": { "fid": 161, "Sitio": "AT290", "Status": "Ativo", "Finalidade": "Fiscalização", "Endereco": "Av. Pres. Castelo Branco, 5817 [O-L]", "ViaSentido": "Av. Pres. Castelo Branco [O-L]", "Bairro": "Barra do Ceará", "Regional": "SR 1", "DataAtivacao": 20240222, "DataDesativacao": null, "Faixas_Via": 3, "Faixas_Fis": 2, "TemContagem": "S", "Lon": -38.58261786, "Lat": -3.70248297 }, "geometry": { "type": "Point", "coordinates": [ -38.58261786, -3.70248297 ] } },
{ "type": "Feature", "properties": { "fid": 162, "Sitio": "AT291", "Status": "Ativo", "Finalidade": "Fiscalização", "Endereco": "Av. Pres. Castelo Branco, 5817 [O-L]", "ViaSentido": "Av. Pres. Castelo Branco [O-L]", "Bairro": "Barra do Ceará", "Regional": "SR 1", "DataAtivacao": 20240222, "DataDesativacao": null, "Faixas_Via": 3, "Faixas_Fis": 1, "TemContagem": "S", "Lon": -38.58258836, "Lat": -3.70242965 }, "geometry": { "type": "Point", "coordinates": [ -38.58258836, -3.70242965 ] } },
{ "type": "Feature", "properties": { "fid": 163, "Sitio": "AT292", "Status": "Ativo", "Finalidade": "Fiscalização", "Endereco": "Av. Jovita Feitosa, 1066 [L-O]", "ViaSentido": "Av. Jovita Feitosa [L-O]", "Bairro": "Parque Araxá", "Regional": "SR 3", "DataAtivacao": 20240305, "DataDesativacao": null, "Faixas_Via": 2, "Faixas_Fis": 2, "TemContagem": "S", "Lon": -38.55264254, "Lat": -3.73900582 }, "geometry": { "type": "Point", "coordinates": [ -38.55264254, -3.73900582 ] } },
{ "type": "Feature", "properties": { "fid": 164, "Sitio": "AT293", "Status": "Ativo", "Finalidade": "Fiscalização", "Endereco": "Av. Jovita Feitosa, 1081 [O-L]", "ViaSentido": "Av. Jovita Feitosa [O-L]", "Bairro": "Amadeu Furtado", "Regional": "SR 3", "DataAtivacao": 20240305, "DataDesativacao": null, "Faixas_Via": 2, "Faixas_Fis": 2, "TemContagem": "S", "Lon": -38.55279953, "Lat": -3.73924067 }, "geometry": { "type": "Point", "coordinates": [ -38.55279953, -3.73924067 ] } },
{ "type": "Feature", "properties": { "fid": 165, "Sitio": "AT294", "Status": "Ativo", "Finalidade": "Fiscalização", "Endereco": "Av. Pres. Costa e Silva, 1712 [O-L]", "ViaSentido": "Av. Pres. Costa e Silva [O-L]", "Bairro": "Mondubim", "Regional": "SR 10", "DataAtivacao": 20240305, "DataDesativacao": null, "Faixas_Via": 3, "Faixas_Fis": 2, "TemContagem": "S", "Lon": -38.56670403, "Lat": -3.81727282 }, "geometry": { "type": "Point", "coordinates": [ -38.56670403, -3.81727282 ] } },
{ "type": "Feature", "properties": { "fid": 166, "Sitio": "AT295", "Status": "Ativo", "Finalidade": "Fiscalização", "Endereco": "Av. Pres. Costa e Silva, 1712 [O-L]", "ViaSentido": "Av. Pres. Costa e Silva [O-L]", "Bairro": "Mondubim", "Regional": "SR 10", "DataAtivacao": 20240305, "DataDesativacao": null, "Faixas_Via": 3, "Faixas_Fis": 1, "TemContagem": "S", "Lon": -38.56663908, "Lat": -3.81706255 }, "geometry": { "type": "Point", "coordinates": [ -38.56663908, -3.81706255 ] } },
{ "type": "Feature", "properties": { "fid": 167, "Sitio": "AT296", "Status": "Ativo", "Finalidade": "Fiscalização", "Endereco": "Av. Bernardo Manuel, 10161 - Oposto [N-S]", "ViaSentido": "Av. Bernardo Manuel [N-S]", "Bairro": "Dendê", "Regional": "SR 8", "DataAtivacao": 20240702, "DataDesativacao": null, "Faixas_Via": 3, "Faixas_Fis": 2, "TemContagem": "S", "Lon": -38.55420832, "Lat": -3.80752482 }, "geometry": { "type": "Point", "coordinates": [ -38.55420832, -3.80752482 ] } },
{ "type": "Feature", "properties": { "fid": 168, "Sitio": "AT297", "Status": "Ativo", "Finalidade": "Fiscalização", "Endereco": "Av. Bernardo Manuel, 10161 - Oposto [N-S]", "ViaSentido": "Av. Bernardo Manuel [N-S]", "Bairro": "Dendê", "Regional": "SR 8", "DataAtivacao": 20240702, "DataDesativacao": null, "Faixas_Via": 3, "Faixas_Fis": 1, "TemContagem": "S", "Lon": -38.55412961, "Lat": -3.80754753 }, "geometry": { "type": "Point", "coordinates": [ -38.55412961, -3.80754753 ] } },
{ "type": "Feature", "properties": { "fid": 169, "Sitio": "AT298", "Status": "Ativo", "Finalidade": "Fiscalização", "Endereco": "Av. Bernardo Manuel, 10271 [S-N]", "ViaSentido": "Av. Bernardo Manuel [S-N]", "Bairro": "Parque Dois Irmãos", "Regional": "SR 8", "DataAtivacao": 20240702, "DataDesativacao": null, "Faixas_Via": 3, "Faixas_Fis": 2, "TemContagem": "S", "Lon": -38.5543146, "Lat": -3.80876993 }, "geometry": { "type": "Point", "coordinates": [ -38.5543146, -3.80876993 ] } },
{ "type": "Feature", "properties": { "fid": 170, "Sitio": "AT299", "Status": "Ativo", "Finalidade": "Fiscalização", "Endereco": "Av. José Bastos, 3040 [N-S]", "ViaSentido": "Av. Jose Bastos [N-S]", "Bairro": "Rodolfo Teófilo", "Regional": "SR 3", "DataAtivacao": 20240624, "DataDesativacao": null, "Faixas_Via": 3, "Faixas_Fis": 2, "TemContagem": "S", "Lon": -38.54760649, "Lat": -3.7469543 }, "geometry": { "type": "Point", "coordinates": [ -38.54760649, -3.7469543 ] } },
{ "type": "Feature", "properties": { "fid": 171, "Sitio": "AT300", "Status": "Ativo", "Finalidade": "Fiscalização", "Endereco": "Av. José Bastos, 3040 [N-S]", "ViaSentido": "Av. Jose Bastos [N-S]", "Bairro": "Rodolfo Teófilo", "Regional": "SR 3", "DataAtivacao": 20240624, "DataDesativacao": null, "Faixas_Via": 3, "Faixas_Fis": 1, "TemContagem": "S", "Lon": -38.54752542, "Lat": -3.74703677 }, "geometry": { "type": "Point", "coordinates": [ -38.54752542, -3.74703677 ] } },
{ "type": "Feature", "properties": { "fid": 172, "Sitio": "AT301", "Status": "Ativo", "Finalidade": "Fiscalização", "Endereco": "Av. José Bastos, 2766 - Oposto [S-N]", "ViaSentido": "Av. Jose Bastos [S-N]", "Bairro": "Damas", "Regional": "SR 4", "DataAtivacao": 20240624, "DataDesativacao": null, "Faixas_Via": 3, "Faixas_Fis": 2, "TemContagem": "S", "Lon": -38.5477596, "Lat": -3.74749383 }, "geometry": { "type": "Point", "coordinates": [ -38.5477596, -3.74749383 ] } },
{ "type": "Feature", "properties": { "fid": 173, "Sitio": "AT302", "Status": "Ativo", "Finalidade": "Fiscalização", "Endereco": "Av. José Bastos, 2766 - Oposto [S-N]", "ViaSentido": "Av. Jose Bastos [S-N]", "Bairro": "Damas", "Regional": "SR 4", "DataAtivacao": 20240624, "DataDesativacao": null, "Faixas_Via": 3, "Faixas_Fis": 1, "TemContagem": "S", "Lon": -38.54789102, "Lat": -3.7474122 }, "geometry": { "type": "Point", "coordinates": [ -38.54789102, -3.7474122 ] } },
{ "type": "Feature", "properties": { "fid": 174, "Sitio": "AT303", "Status": "Ativo", "Finalidade": "Fiscalização", "Endereco": "Av. Sen. Fernandes Tavora, 2223 [O-L]", "ViaSentido": "Av. Sen. Fernandes Tavora [O-L]", "Bairro": "Autran Nunes", "Regional": "SR 11", "DataAtivacao": 20240624, "DataDesativacao": null, "Faixas_Via": 2, "Faixas_Fis": 2, "TemContagem": "S", "Lon": -38.59182637, "Lat": -3.7571395 }, "geometry": { "type": "Point", "coordinates": [ -38.59182637, -3.7571395 ] } },
{ "type": "Feature", "properties": { "fid": 175, "Sitio": "AT503", "Status": "Ativo", "Finalidade": "Fiscalizacao", "Endereco": "R. Padre Valdevino, 2645 [L-O]", "ViaSentido": "Rua Padre Valdevino [L-O]", "Bairro": "Aldeota", "Regional": "SR 2", "DataAtivacao": 20231128, "DataDesativacao": null, "Faixas_Via": 1, "Faixas_Fis": 1, "TemContagem": "S", "Lon": -38.501535, "Lat": -3.74387 }, "geometry": { "type": "Point", "coordinates": [ -38.501535, -3.74387 ] } },
{ "type": "Feature", "properties": { "fid": 176, "Sitio": "AT504", "Status": "Ativo", "Finalidade": "Fiscalizacao", "Endereco": "R. Padre Valdevino, 2648 [L-O]", "ViaSentido": "Rua Padre Valdevino [L-O]", "Bairro": "Aldeota", "Regional": "SR 2", "DataAtivacao": 20231128, "DataDesativacao": null, "Faixas_Via": 2, "Faixas_Fis": 2, "TemContagem": "S", "Lon": -38.502254, "Lat": -3.74363 }, "geometry": { "type": "Point", "coordinates": [ -38.502254, -3.74363 ] } },
{ "type": "Feature", "properties": { "fid": 177, "Sitio": "AT505", "Status": "Ativo", "Finalidade": "Fiscalizacao", "Endereco": "R. Padre Valdevino, 2497 [L-O]", "ViaSentido": "Rua Padre Valdevino [L-O]", "Bairro": "Aldeota", "Regional": "SR 2", "DataAtivacao": 20231128, "DataDesativacao": null, "Faixas_Via": 3, "Faixas_Fis": 2, "TemContagem": "S", "Lon": -38.503149, "Lat": -3.74342 }, "geometry": { "type": "Point", "coordinates": [ -38.503149, -3.74342 ] } },
{ "type": "Feature", "properties": { "fid": 178, "Sitio": "AT506", "Status": "Ativo", "Finalidade": "Fiscalizacao", "Endereco": "R. Padre Valdevino, 2415 [L-O]", "ViaSentido": "Rua Padre Valdevino [L-O]", "Bairro": "Aldeota", "Regional": "SR 2", "DataAtivacao": 20231128, "DataDesativacao": null, "Faixas_Via": 3, "Faixas_Fis": 3, "TemContagem": "S", "Lon": -38.504192, "Lat": -3.74309 }, "geometry": { "type": "Point", "coordinates": [ -38.504192, -3.74309 ] } },
{ "type": "Feature", "properties": { "fid": 179, "Sitio": "AT915", "Status": "Ativo", "Finalidade": "Fiscalizacao", "Endereco": "Av. Joao Pessoa, 3902 [N-S]", "ViaSentido": "Av. Joao Pessoa [N-S]", "Bairro": "Damas", "Regional": "SR 4", "DataAtivacao": 20140120, "DataDesativacao": null, "Faixas_Via": 3, "Faixas_Fis": 3, "TemContagem": "S", "Lon": -38.545859, "Lat": -3.74836 }, "geometry": { "type": "Point", "coordinates": [ -38.545859, -3.74836 ] } },
{ "type": "Feature", "properties": { "fid": 180, "Sitio": "FV140", "Status": "Ativo", "Finalidade": "Fiscalizacao", "Endereco": "Av. Monsenhor Tabosa, 539 [O-L]", "ViaSentido": "Av. Monsenhor Tabosa [O-L]", "Bairro": "Centro", "Regional": "SR 12", "DataAtivacao": 20230720, "DataDesativacao": null, "Faixas_Via": 2, "Faixas_Fis": 2, "TemContagem": "S", "Lon": -38.5141897, "Lat": -3.7238656 }, "geometry": { "type": "Point", "coordinates": [ -38.5141897, -3.7238656 ] } },
{ "type": "Feature", "properties": { "fid": 181, "Sitio": "FV142", "Status": "Ativo", "Finalidade": "Fiscalizacao", "Endereco": "Av. Pres. Costa e Silva, 2403 [L-O]", "ViaSentido": "Av. Pres. Costa e Silva [L-O]", "Bairro": "Mondubim", "Regional": "SR 10", "DataAtivacao": 20230717, "DataDesativacao": null, "Faixas_Via": 3, "Faixas_Fis": 3, "TemContagem": "S", "Lon": -38.560597, "Lat": -3.819846 }, "geometry": { "type": "Point", "coordinates": [ -38.560597, -3.819846 ] } },
{ "type": "Feature", "properties": { "fid": 182, "Sitio": "FV143", "Status": "Ativo", "Finalidade": "Fiscalizacao", "Endereco": "Av. Godofredo Maciel, 3570 - Oposto [N-S]", "ViaSentido": "Av. Godofredo Maciel [N-S]", "Bairro": "Mondubim", "Regional": "SR 10", "DataAtivacao": 20230717, "DataDesativacao": null, "Faixas_Via": 3, "Faixas_Fis": 3, "TemContagem": "S", "Lon": -38.5732198, "Lat": -3.8067294 }, "geometry": { "type": "Point", "coordinates": [ -38.5732198, -3.8067294 ] } },
{ "type": "Feature", "properties": { "fid": 183, "Sitio": "FV165", "Status": "Ativo", "Finalidade": "Fiscalizacao", "Endereco": "Av. Bernardo Manuel, 9268 [N-S]", "ViaSentido": "Av. Bernardo Manuel [N-S]", "Bairro": "Dendê", "Regional": "SR 8", "DataAtivacao": 20230717, "DataDesativacao": null, "Faixas_Via": 3, "Faixas_Fis": 2, "TemContagem": "S", "Lon": -38.55212, "Lat": -3.800732 }, "geometry": { "type": "Point", "coordinates": [ -38.55212, -3.800732 ] } },
{ "type": "Feature", "properties": { "fid": 184, "Sitio": "FV166", "Status": "Ativo", "Finalidade": "Fiscalizacao", "Endereco": "Av. Bernardo Manuel, 8152 [N-S]", "ViaSentido": "Av. Bernardo Manuel [N-S]", "Bairro": "Itaperi", "Regional": "SR 8", "DataAtivacao": 20230717, "DataDesativacao": null, "Faixas_Via": 3, "Faixas_Fis": 3, "TemContagem": "S", "Lon": -38.5492189, "Lat": -3.7910076 }, "geometry": { "type": "Point", "coordinates": [ -38.5492189, -3.7910076 ] } },
{ "type": "Feature", "properties": { "fid": 185, "Sitio": "FV167", "Status": "Ativo", "Finalidade": "Fiscalizacao", "Endereco": "Av. Eng. Santana Junior, 2 metros apos Av. Antônio Sales [S-N]", "ViaSentido": "Av. Eng. Santana Junior [S-N]", "Bairro": "Cocó", "Regional": "SR 7", "DataAtivacao": 20230719, "DataDesativacao": null, "Faixas_Via": 1, "Faixas_Fis": 1, "TemContagem": "S", "Lon": -38.4898638, "Lat": -3.7489812 }, "geometry": { "type": "Point", "coordinates": [ -38.4898638, -3.7489812 ] } },
{ "type": "Feature", "properties": { "fid": 186, "Sitio": "FV185", "Status": "Ativo", "Finalidade": "Fiscalizacao", "Endereco": "Av. Juscelino Kubitschek, 4500 - Oposto [S-N]", "ViaSentido": "Av. Juscelino Kubitschek [S-N]", "Bairro": "Passaré", "Regional": "SR 8", "DataAtivacao": 20230821, "DataDesativacao": null, "Faixas_Via": 3, "Faixas_Fis": 3, "TemContagem": "S", "Lon": -38.5327881, "Lat": -3.81801123 }, "geometry": { "type": "Point", "coordinates": [ -38.5327881, -3.81801123 ] } },
{ "type": "Feature", "properties": { "fid": 187, "Sitio": "FV186", "Status": "Ativo", "Finalidade": "Fiscalizacao", "Endereco": "Av. Juscelino Kubitschek, 4500 [N-S]", "ViaSentido": "Av. Juscelino Kubitschek [N-S]", "Bairro": "Passaré", "Regional": "SR 8", "DataAtivacao": 20230824, "DataDesativacao": null, "Faixas_Via": 3, "Faixas_Fis": 3, "TemContagem": "S", "Lon": -38.53271705, "Lat": -3.81763567 }, "geometry": { "type": "Point", "coordinates": [ -38.53271705, -3.81763567 ] } },
{ "type": "Feature", "properties": { "fid": 188, "Sitio": "FV187", "Status": "Ativo", "Finalidade": "Fiscalizacao", "Endereco": "Av. Raul Barbosa, 5880 [N-S]", "ViaSentido": "Av. Raul Barbosa [N-S]", "Bairro": "Aerolândia", "Regional": "SR 6", "DataAtivacao": 20230913, "DataDesativacao": null, "Faixas_Via": 3, "Faixas_Fis": 3, "TemContagem": "S", "Lon": -38.510392, "Lat": -3.769307 }, "geometry": { "type": "Point", "coordinates": [ -38.510392, -3.769307 ] } },
{ "type": "Feature", "properties": { "fid": 189, "Sitio": "FV253", "Status": "Ativo", "Finalidade": "Fiscalizacao", "Endereco": "R. Raimundo Neri, 383 [S-N]", "ViaSentido": "Rua Raimundo Neri [S-N]", "Bairro": "Vila Peri", "Regional": "SR 4", "DataAtivacao": 20230919, "DataDesativacao": null, "Faixas_Via": 2, "Faixas_Fis": 2, "TemContagem": "S", "Lon": -38.5862171, "Lat": -3.7944698 }, "geometry": { "type": "Point", "coordinates": [ -38.5862171, -3.7944698 ] } },
{ "type": "Feature", "properties": { "fid": 190, "Sitio": "FV254", "Status": "Ativo", "Finalidade": "Fiscalizacao", "Endereco": "R. Vitoria, 1719 [N-S]", "ViaSentido": "Rua Vitoria [N-S]", "Bairro": "João XXIII", "Regional": "SR 11", "DataAtivacao": 20230919, "DataDesativacao": null, "Faixas_Via": 2, "Faixas_Fis": 2, "TemContagem": "S", "Lon": -38.59, "Lat": -3.7678156 }, "geometry": { "type": "Point", "coordinates": [ -38.59, -3.7678156 ] } },
{ "type": "Feature", "properties": { "fid": 191, "Sitio": "FV414", "Status": "Ativo", "Finalidade": "Fiscalização", "Endereco": "Av. Dioguinho, 2125 - Oposto [N-S]", "ViaSentido": "Av. Dioguinho [N-S]", "Bairro": "Praia do Futuro I", "Regional": "SR 7", "DataAtivacao": 20240226, "DataDesativacao": null, "Faixas_Via": 2, "Faixas_Fis": 2, "TemContagem": "S", "Lon": -38.45677967, "Lat": -3.73554568 }, "geometry": { "type": "Point", "coordinates": [ -38.45677967, -3.73554568 ] } },
{ "type": "Feature", "properties": { "fid": 192, "Sitio": "FV415", "Status": "Ativo", "Finalidade": "Fiscalização", "Endereco": "Av. Dioguinho, 2171 [S-N]", "ViaSentido": "Av. Dioguinho [S-N]", "Bairro": "Praia do Futuro I", "Regional": "SR 7", "DataAtivacao": 20240226, "DataDesativacao": null, "Faixas_Via": 2, "Faixas_Fis": 2, "TemContagem": "S", "Lon": -38.45625106, "Lat": -3.73600941 }, "geometry": { "type": "Point", "coordinates": [ -38.45625106, -3.73600941 ] } },
{ "type": "Feature", "properties": { "fid": 193, "Sitio": "FV416", "Status": "Ativo", "Finalidade": "Fiscalização", "Endereco": "Av. Raul Barbosa, 3550 [N-S]", "ViaSentido": "Av. Raul Barbosa [N-S]", "Bairro": "Tauape", "Regional": "SR 2", "DataAtivacao": 20240401, "DataDesativacao": null, "Faixas_Via": 3, "Faixas_Fis": 3, "TemContagem": "S", "Lon": -38.50467028, "Lat": -3.75731957 }, "geometry": { "type": "Point", "coordinates": [ -38.50467028, -3.75731957 ] } },
{ "type": "Feature", "properties": { "fid": 194, "Sitio": "FV417", "Status": "Ativo", "Finalidade": "Fiscalização", "Endereco": "Av. Raul Barbosa, 3550 - Oposto [S-N]", "ViaSentido": "Av. Raul Barbosa [S-N]", "Bairro": "Tauape", "Regional": "SR 2", "DataAtivacao": 20240401, "DataDesativacao": null, "Faixas_Via": 3, "Faixas_Fis": 3, "TemContagem": "S", "Lon": -38.50436466, "Lat": -3.75732408 }, "geometry": { "type": "Point", "coordinates": [ -38.50436466, -3.75732408 ] } },
{ "type": "Feature", "properties": { "fid": 195, "Sitio": "FV418", "Status": "Ativo", "Finalidade": "Fiscalização", "Endereco": "Av. Raul Barbosa, 6584 [N-S]", "ViaSentido": "Av. Raul Barbosa [N-S]", "Bairro": "Aerolândia", "Regional": "SR 6", "DataAtivacao": 20240401, "DataDesativacao": null, "Faixas_Via": 3, "Faixas_Fis": 2, "TemContagem": "S", "Lon": -38.51197014, "Lat": -3.7719733 }, "geometry": { "type": "Point", "coordinates": [ -38.51197014, -3.7719733 ] } },
{ "type": "Feature", "properties": { "fid": 196, "Sitio": "FV419", "Status": "Ativo", "Finalidade": "Fiscalização", "Endereco": "Av. Raul Barbosa, 6600 - Oposto [S-N]", "ViaSentido": "Av. Raul Barbosa [S-N]", "Bairro": "Aerolândia", "Regional": "SR 6", "DataAtivacao": 20240401, "DataDesativacao": null, "Faixas_Via": 3, "Faixas_Fis": 1, "TemContagem": "N", "Lon": -38.51179565, "Lat": -3.77216633 }, "geometry": { "type": "Point", "coordinates": [ -38.51179565, -3.77216633 ] } },
{ "type": "Feature", "properties": { "fid": 197, "Sitio": "FV652", "Status": "Ativo", "Finalidade": "Fiscalização", "Endereco": "Av. Dioguinho, 4400 [N-S]", "ViaSentido": "Av. Dioguinho [N-S]", "Bairro": "Praia do Futuro II", "Regional": "SR 7", "DataAtivacao": 20240723, "DataDesativacao": null, "Faixas_Via": 2, "Faixas_Fis": 2, "TemContagem": "S", "Lon": -38.44718848, "Lat": -3.75359756 }, "geometry": { "type": "Point", "coordinates": [ -38.44718848, -3.75359756 ] } },
{ "type": "Feature", "properties": { "fid": 198, "Sitio": "FV653", "Status": "Ativo", "Finalidade": "Fiscalização", "Endereco": "Av. Dioguinho, 4400 - Oposto [S-N]", "ViaSentido": "Av. Dioguinho [S-N]", "Bairro": "Praia do Futuro II", "Regional": "SR 7", "DataAtivacao": 20240723, "DataDesativacao": null, "Faixas_Via": 2, "Faixas_Fis": 2, "TemContagem": "S", "Lon": -38.44695513, "Lat": -3.75357347 }, "geometry": { "type": "Point", "coordinates": [ -38.44695513, -3.75357347 ] } },
{ "type": "Feature", "properties": { "fid": 199, "Sitio": "FV655", "Status": "Ativo", "Finalidade": "Fiscalização", "Endereco": "Av. Sen. Fernandes Tavora, 623 [O-L]", "ViaSentido": "Av. Sen. Fernandes Tavora [O-L]", "Bairro": "Henrique Jorge", "Regional": "SR 11", "DataAtivacao": 20240722, "DataDesativacao": null, "Faixas_Via": 2, "Faixas_Fis": 2, "TemContagem": "S", "Lon": -38.57865486, "Lat": -3.76418916 }, "geometry": { "type": "Point", "coordinates": [ -38.57865486, -3.76418916 ] } },
{ "type": "Feature", "properties": { "fid": 200, "Sitio": "FV656", "Status": "Ativo", "Finalidade": "Fiscalização", "Endereco": "Rua Santa Terezinha do Menino Jesus e da Sagrada Face x Rua Santa Esmeralda [N-S]", "ViaSentido": "Rua Santa Terezinha do Menino Jesus e da Sagrada Face [N-S]", "Bairro": "Tauape", "Regional": "SR 2", "DataAtivacao": 20240722, "DataDesativacao": null, "Faixas_Via": 2, "Faixas_Fis": 2, "TemContagem": "S", "Lon": -38.49717836, "Lat": -3.75270916 }, "geometry": { "type": "Point", "coordinates": [ -38.49717836, -3.75270916 ] } }
]
}
